{
  "theatre_list": [
    {
      "item": {
        "state": "TN",
        "city": "Knoxville",
        "theatre_code": "0103",
        "path_name": "regal-downtown-west-cinema-0103",
        "name": "Regal Downtown West",
        "address": "1640 Downtown West Blvd.",
        "latitude": 35.922,
        "longitude": -84.0509,
        "zip": "37919"
      }
    },
    {
      "item": {
        "state": "WV",
        "city": "Vienna",
        "theatre_code": "0115",
        "path_name": "regal-grand-central-mall-0115",
        "name": "Regal Grand Central Mall",
        "address": "700 Grand Central Mall",
        "latitude": 39.305,
        "longitude": -81.5506,
        "zip": "26105"
      }
    },
    {
      "item": {
        "state": "TN",
        "city": "Chattanooga",
        "theatre_code": "0117",
        "path_name": "regal-hamilton-place-0117",
        "name": "Regal Hamilton Place",
        "address": "2000 Hamilton Place Boulevard",
        "latitude": 35.0376,
        "longitude": -85.1563,
        "zip": "37421"
      }
    },
    {
      "item": {
        "state": "TN",
        "city": "Tullahoma",
        "theatre_code": "0120",
        "path_name": "regal-tullahoma-0120",
        "name": "Regal Tullahoma",
        "address": "2221 N. Jackson Street",
        "latitude": 35.3915,
        "longitude": -86.2455,
        "zip": "37360"
      }
    },
    {
      "item": {
        "state": "DE",
        "city": "Newark",
        "theatre_code": "0133",
        "path_name": "regal-peoples-plaza-0133",
        "name": "Regal Peoples Plaza",
        "address": "1100 Peoples Plaza",
        "latitude": 39.597,
        "longitude": -75.7512,
        "zip": "19702"
      }
    },
    {
      "item": {
        "state": "IN",
        "city": "Carmel",
        "theatre_code": "0147",
        "path_name": "regal-village-park-0147",
        "name": "Regal Village Park",
        "address": "2222 East 146th Street",
        "latitude": 40.0003,
        "longitude": -86.1212,
        "zip": "46032"
      }
    },
    {
      "item": {
        "state": "OH",
        "city": "Westlake",
        "theatre_code": "0155",
        "path_name": "regal-crocker-park-0155",
        "name": "Regal Crocker Park",
        "address": "30147 Detroit Road",
        "latitude": 41.4632,
        "longitude": -81.9541,
        "zip": "44145"
      }
    },
    {
      "item": {
        "state": "VA",
        "city": "Newport News",
        "theatre_code": "0161",
        "path_name": "regal-kiln-creek-0161",
        "name": "Regal Kiln Creek",
        "address": "100 Regal Way",
        "latitude": 37.1106,
        "longitude": -76.4735,
        "zip": "23602"
      }
    },
    {
      "item": {
        "state": "OH",
        "city": "Hudson",
        "theatre_code": "0164",
        "path_name": "regal-hudson-cinema-0164",
        "name": "Regal Hudson",
        "address": "5339 Darrow Road",
        "latitude": 41.211,
        "longitude": -81.4405,
        "zip": "44236"
      }
    },
    {
      "item": {
        "state": "VA",
        "city": "Glen Allen",
        "theatre_code": "0165",
        "path_name": "regal-virginia-center-0165",
        "name": "Regal Virginia Center",
        "address": "10091 Jeb Stuart Parkway",
        "latitude": 37.665,
        "longitude": -77.4585,
        "zip": "23059"
      }
    },
    {
      "item": {
        "state": "NJ",
        "city": "Turnersville",
        "theatre_code": "0167",
        "path_name": "regal-cross-keys-0167",
        "name": "Regal Cross Keys",
        "address": "151 American Blvd.",
        "latitude": 39.7227,
        "longitude": -75.0333,
        "zip": "08012"
      }
    },
    {
      "item": {
        "state": "IN",
        "city": "Fort Wayne",
        "theatre_code": "0169",
        "path_name": "regal-coldwater-crossing-0169",
        "name": "Regal Coldwater Crossing",
        "address": "211 West Washington Center Rd",
        "latitude": 41.1325,
        "longitude": -85.1415,
        "zip": "46825"
      }
    },
    {
      "item": {
        "state": "OH",
        "city": "Youngstown",
        "theatre_code": "0175",
        "path_name": "regal-cinema-south-0175",
        "name": "Regal Cinema South",
        "address": "7420 South Ave",
        "latitude": 41.0103,
        "longitude": -80.6345,
        "zip": "44514"
      }
    },
    {
      "item": {
        "state": "OH",
        "city": "Niles",
        "theatre_code": "0183",
        "path_name": "regal-boulevard-centre-0183",
        "name": "Regal Boulevard Centre",
        "address": "24 Boulevard Centre",
        "latitude": 41.2109,
        "longitude": -80.7526,
        "zip": "44446"
      }
    },
    {
      "item": {
        "state": "IN",
        "city": "Avon",
        "theatre_code": "0190",
        "path_name": "regal-shiloh-crossing-0190",
        "name": "Regal Shiloh Crossing",
        "address": "10400 East US 36, STE 800",
        "latitude": 39.7662,
        "longitude": -86.3391,
        "zip": "46213"
      }
    },
    {
      "item": {
        "state": "NJ",
        "city": "Burlington",
        "theatre_code": "0198",
        "path_name": "regal-burlington-0198",
        "name": "Regal Burlington",
        "address": "250 Bromley Boulevard",
        "latitude": 40.0397,
        "longitude": -74.8205,
        "zip": "08016"
      }
    },
    {
      "item": {
        "state": "FL",
        "city": "Inverness",
        "theatre_code": "0206",
        "path_name": "regal-citrus-cinemas-0206",
        "name": "Regal Citrus Cinemas",
        "address": "2635 E. Gulf to Lake Highway",
        "latitude": 28.8553,
        "longitude": -82.3978,
        "zip": "34453"
      }
    },
    {
      "item": {
        "state": "NC",
        "city": "Boone",
        "theatre_code": "0217",
        "path_name": "regal-boone-cinema-0217",
        "name": "Regal Boone",
        "address": "210 New Market Street Centre",
        "latitude": 36.2203,
        "longitude": -81.6592,
        "zip": "28607"
      }
    },
    {
      "item": {
        "state": "FL",
        "city": "Gainesville",
        "theatre_code": "0219",
        "path_name": "regal-butler-town-center-0219",
        "name": "Regal Butler Town Center",
        "address": "3101 SW 35th Blvd Butler Plaza",
        "latitude": 29.6241,
        "longitude": -82.3736,
        "zip": "32608"
      }
    },
    {
      "item": {
        "state": "PA",
        "city": "Newtown Square",
        "theatre_code": "0232",
        "path_name": "regal-edgmont-square-0232",
        "name": "Regal Edgmont Square",
        "address": "4777 W Chester Pike",
        "latitude": 39.9753,
        "longitude": -75.4405,
        "zip": "19008"
      }
    },
    {
      "item": {
        "state": "PA",
        "city": "Conshohocken",
        "theatre_code": "0234",
        "path_name": "regal-plymouth-meeting-0234",
        "name": "Regal Plymouth Meeting",
        "address": "1011 Ridge Pike",
        "latitude": 40.0994,
        "longitude": -75.3061,
        "zip": "19428"
      }
    },
    {
      "item": {
        "state": "VA",
        "city": "Virginia Beach",
        "theatre_code": "0235",
        "path_name": "regal-strawbridge-marketplace-0235",
        "name": "Regal Strawbridge Marketplace",
        "address": "2133 General Booth Blvd.",
        "latitude": 36.7642,
        "longitude": -76.0156,
        "zip": "23454"
      }
    },
    {
      "item": {
        "state": "OH",
        "city": "Akron",
        "theatre_code": "0238",
        "path_name": "regal-independence-0238",
        "name": "Regal Independence",
        "address": "1210 Independence Ave.",
        "latitude": 41.1109,
        "longitude": -81.4708,
        "zip": "44310"
      }
    },
    {
      "item": {
        "state": "FL",
        "city": "Jacksonville",
        "theatre_code": "0241",
        "path_name": "regal-avenues-4dx-rpx-0241",
        "name": "Regal Avenues",
        "address": "9525 Phillips Highway",
        "latitude": 30.1927,
        "longitude": -81.5647,
        "zip": "32207"
      }
    },
    {
      "item": {
        "state": "NJ",
        "city": "Vineland",
        "theatre_code": "0244",
        "path_name": "regal-cumberland-mall-0244",
        "name": "Regal Cumberland Mall",
        "address": "3849 South Delsea",
        "latitude": 39.4315,
        "longitude": -75.0411,
        "zip": "08360"
      }
    },
    {
      "item": {
        "state": "SC",
        "city": "Aiken",
        "theatre_code": "0252",
        "path_name": "regal-aiken-mall-0252",
        "name": "Regal Aiken Mall",
        "address": "300 East Gate Drive",
        "latitude": 33.5042,
        "longitude": -81.7173,
        "zip": "29803"
      }
    },
    {
      "item": {
        "state": "VA",
        "city": "Chesapeake",
        "theatre_code": "0280",
        "path_name": "regal-greenbrier-0280",
        "name": "Regal Greenbrier",
        "address": "600 Jarman Road",
        "latitude": 36.7777,
        "longitude": -76.2364,
        "zip": "23320"
      }
    },
    {
      "item": {
        "state": "NY",
        "city": "Williamsville",
        "theatre_code": "0294",
        "path_name": "regal-transit-center-0294",
        "name": "Regal Transit Center",
        "address": "6707 Transit Road",
        "latitude": 42.9571,
        "longitude": -78.6969,
        "zip": "14221"
      }
    },
    {
      "item": {
        "state": "VA",
        "city": "Arlington",
        "theatre_code": "0296",
        "path_name": "regal-ballston-quarter-0296",
        "name": "Regal Ballston Quarter",
        "address": "671 N. Glebe Road",
        "latitude": 38.8778,
        "longitude": -77.1106,
        "zip": "22203"
      }
    },
    {
      "item": {
        "state": "NY",
        "city": "New Rochelle",
        "theatre_code": "0297",
        "path_name": "regal-new-roc-0297",
        "name": "Regal New Roc",
        "address": "33 Le Count Place",
        "latitude": 40.9108,
        "longitude": -73.7803,
        "zip": "10801"
      }
    },
    {
      "item": {
        "state": "WA",
        "city": "Marysville",
        "theatre_code": "0298",
        "path_name": "regal-marysville-0298",
        "name": "Regal Marysville",
        "address": "9811 State Avenue",
        "latitude": 48.0843,
        "longitude": -122.1713,
        "zip": "98270"
      }
    },
    {
      "item": {
        "state": "WA",
        "city": "Bonneylake",
        "theatre_code": "0330",
        "path_name": "regal-tall-firs-0330",
        "name": "Regal Tall Firs",
        "address": "20751 State Route 410 E",
        "latitude": 47.1684,
        "longitude": -122.1516,
        "zip": "98321"
      }
    },
    {
      "item": {
        "state": "MD",
        "city": "Rockville",
        "theatre_code": "0336",
        "path_name": "regal-rockville-center-0336",
        "name": "Regal Rockville Center",
        "address": "199 East Montgomery Avenue",
        "latitude": 39.0833,
        "longitude": -77.1502,
        "zip": "20850"
      }
    },
    {
      "item": {
        "state": "FL",
        "city": "Coral Springs",
        "theatre_code": "0339",
        "path_name": "regal-magnolia-place-0339",
        "name": "Regal Magnolia Place",
        "address": "9645 Westview Drive",
        "latitude": 26.2974,
        "longitude": -80.2549,
        "zip": "33076"
      }
    },
    {
      "item": {
        "state": "NY",
        "city": "Buffalo",
        "theatre_code": "0341",
        "path_name": "regal-elmwood-center-0341",
        "name": "Regal Elmwood Center",
        "address": "2001 Elmwood Avenue",
        "latitude": 42.952,
        "longitude": -78.8782,
        "zip": "14216"
      }
    },
    {
      "item": {
        "state": "CA",
        "city": "Dublin",
        "theatre_code": "0347",
        "path_name": "regal-hacienda-crossings-0347",
        "name": "Regal Hacienda Crossings",
        "address": "5000 Dublin Blvd",
        "latitude": 37.705,
        "longitude": -121.886,
        "zip": "94568"
      }
    },
    {
      "item": {
        "state": "FL",
        "city": "Royal Palm Beach",
        "theatre_code": "0351",
        "path_name": "regal-royal-palm-beach-rpx-0351",
        "name": "Regal Royal Palm Beach",
        "address": "1003 State Road 7",
        "latitude": 26.6943,
        "longitude": -80.2019,
        "zip": "33414"
      }
    },
    {
      "item": {
        "state": "GA",
        "city": "Duluth",
        "theatre_code": "0354",
        "path_name": "regal-medlock-crossing-rpx-0354",
        "name": "Regal Medlock Crossing",
        "address": "9700 Medlock Bridge Rd, St 170",
        "latitude": 34.018,
        "longitude": -84.1902,
        "zip": "30022"
      }
    },
    {
      "item": {
        "state": "WA",
        "city": "Puyallup",
        "theatre_code": "0355",
        "path_name": "regal-longston-place-0355",
        "name": "Regal Longston Place",
        "address": "13317 Meridan St. East",
        "latitude": 47.1357,
        "longitude": -122.2917,
        "zip": "98343"
      }
    },
    {
      "item": {
        "state": "CA",
        "city": "Chula Vista",
        "theatre_code": "0361",
        "path_name": "regal-rancho-del-rey-0361",
        "name": "Regal Rancho Del Rey",
        "address": "1025 Tierra Del Rey",
        "latitude": 32.6375,
        "longitude": -117.0194,
        "zip": "91910"
      }
    },
    {
      "item": {
        "state": "CA",
        "city": "Garden Grove",
        "theatre_code": "0364",
        "path_name": "regal-garden-grove-0364",
        "name": "Regal Garden Grove",
        "address": "9741 Chapman Avenue",
        "latitude": 33.7886,
        "longitude": -117.9626,
        "zip": "92840"
      }
    },
    {
      "item": {
        "state": "VA",
        "city": "Norfolk",
        "theatre_code": "0365",
        "path_name": "regal-macarthur-center-rpx-0365",
        "name": "Regal Macarthur Center",
        "address": "300 Monticello Avenue, Ste 330",
        "latitude": 36.85,
        "longitude": -76.29,
        "zip": "23514"
      }
    },
    {
      "item": {
        "state": "NJ",
        "city": "South Plainfield",
        "theatre_code": "0370",
        "path_name": "regal-hadley-theatre-0370",
        "name": "Regal Hadley",
        "address": "1000 Corporate CT",
        "latitude": 40.5499,
        "longitude": -74.4241,
        "zip": "07080"
      }
    },
    {
      "item": {
        "state": "PA",
        "city": "Easton",
        "theatre_code": "0371",
        "path_name": "regal-northampton-cinema-rpx-0371",
        "name": "Regal Northampton",
        "address": "3720 Easton-Nazareth Highway",
        "latitude": 40.7142,
        "longitude": -75.2822,
        "zip": "18045"
      }
    },
    {
      "item": {
        "state": "PA",
        "city": "Warrington",
        "theatre_code": "0379",
        "path_name": "regal-warrington-crossing-0379",
        "name": "Regal Warrington Crossing",
        "address": "104 Easton Rd., Bldg F",
        "latitude": 40.2164,
        "longitude": -75.143,
        "zip": "18976"
      }
    },
    {
      "item": {
        "state": "FL",
        "city": "Oviedo",
        "theatre_code": "0380",
        "path_name": "regal-oviedo-mall-0380",
        "name": "Regal Oviedo Mall",
        "address": "1500 Oviedo Marketplace Blvd",
        "latitude": 28.6551,
        "longitude": -81.2345,
        "zip": "32765"
      }
    },
    {
      "item": {
        "state": "OH",
        "city": "Willoughby",
        "theatre_code": "0381",
        "path_name": "regal-willoughby-commons-0381",
        "name": "Regal Willoughby Commons",
        "address": "36655 Euclid Avenue",
        "latitude": 41.6284,
        "longitude": -81.4234,
        "zip": "44094"
      }
    },
    {
      "item": {
        "state": "NC",
        "city": "Charlotte",
        "theatre_code": "0384",
        "path_name": "regal-stonecrest-piper-glen-0384",
        "name": "Regal Stonecrest at Piper Glen",
        "address": "7824 Rea Road",
        "latitude": 35.0604,
        "longitude": -80.8135,
        "zip": "28277"
      }
    },
    {
      "item": {
        "state": "PA",
        "city": "Downingtown",
        "theatre_code": "0385",
        "path_name": "regal-downingtown-0385",
        "name": "Regal Downingtown",
        "address": "100 Quarry Road",
        "latitude": 40.0132,
        "longitude": -75.677,
        "zip": "19335"
      }
    },
    {
      "item": {
        "state": "CA",
        "city": "El Cajon",
        "theatre_code": "0388",
        "path_name": "regal-parkway-plaza-0388",
        "name": "Regal Parkway Plaza",
        "address": "405 Parkway Plaza",
        "latitude": 32.8036,
        "longitude": -116.9676,
        "zip": "92020"
      }
    },
    {
      "item": {
        "state": "OH",
        "city": "Beavercreek",
        "theatre_code": "0389",
        "path_name": "regal-fairfield-commons-rpx-0389",
        "name": "Regal Fairfield Commons",
        "address": "2651 Fairfield Commons",
        "latitude": 39.766,
        "longitude": -84.0525,
        "zip": "45431"
      }
    },
    {
      "item": {
        "state": "CA",
        "city": "Simi Valley",
        "theatre_code": "0391",
        "path_name": "regal-simi-valley-civic-center-0391",
        "name": "Regal Simi Valley Civic Center",
        "address": "2751 Tapo Cyn Road",
        "latitude": 34.286,
        "longitude": -118.716,
        "zip": "93063"
      }
    },
    {
      "item": {
        "state": "GA",
        "city": "Douglasville",
        "theatre_code": "0392",
        "path_name": "regal-arbor-place-0392",
        "name": "Regal Arbor Place",
        "address": "6600 Douglas Blvd.",
        "latitude": 33.7215,
        "longitude": -84.7748,
        "zip": "30135"
      }
    },
    {
      "item": {
        "state": "PA",
        "city": "York",
        "theatre_code": "0395",
        "path_name": "regal-west-manchester-0395",
        "name": "Regal West Manchester",
        "address": "455 Town Center Drive",
        "latitude": 39.9718,
        "longitude": -76.7763,
        "zip": "17404"
      }
    },
    {
      "item": {
        "state": "FL",
        "city": "Key West",
        "theatre_code": "0412",
        "path_name": "regal-key-west-0412",
        "name": "Regal Key West",
        "address": "3338 N. Roosevelt Blvd.",
        "latitude": 24.56998,
        "longitude": -81.76304,
        "zip": "33040"
      }
    },
    {
      "item": {
        "state": "FL",
        "city": "Port Richey",
        "theatre_code": "0418",
        "path_name": "regal-hollywood-port-richey-0418",
        "name": "Regal Hollywood - Port Richey",
        "address": "6701 Cinema Drive (34668)",
        "latitude": 28.3062,
        "longitude": -82.7052,
        "zip": "34668"
      }
    },
    {
      "item": {
        "state": "FL",
        "city": "Ft Myers",
        "theatre_code": "0432",
        "path_name": "regal-belltower-0432",
        "name": "Regal Belltower",
        "address": "13499 Belltower Drive",
        "latitude": 26.5472,
        "longitude": -81.8678,
        "zip": "33907"
      }
    },
    {
      "item": {
        "state": "FL",
        "city": "Sunrise",
        "theatre_code": "0442",
        "path_name": "regal-sawgrass-0442",
        "name": "Regal Sawgrass",
        "address": "2600  Northwest 136th Avenue",
        "latitude": 26.1569,
        "longitude": -80.3214,
        "zip": "33323"
      }
    },
    {
      "item": {
        "state": "FL",
        "city": "Bradenton",
        "theatre_code": "0444",
        "path_name": "regal-oakmont-0444",
        "name": "Regal Oakmont",
        "address": "4801 Cortez Road W",
        "latitude": 27.4622,
        "longitude": -82.6149,
        "zip": "34210"
      }
    },
    {
      "item": {
        "state": "FL",
        "city": "Largo",
        "theatre_code": "0446",
        "path_name": "regal-largo-mall-0446",
        "name": "Regal Largo Mall",
        "address": "10500 Ulmerton Road East, #500",
        "latitude": 27.8946,
        "longitude": -82.7845,
        "zip": "33771"
      }
    },
    {
      "item": {
        "state": "FL",
        "city": "Naples",
        "theatre_code": "0465",
        "path_name": "regal-naples-0465",
        "name": "Regal Naples",
        "address": "6006 Hollywood Drive",
        "latitude": 26.2201,
        "longitude": -81.7713,
        "zip": "35105"
      }
    },
    {
      "item": {
        "state": "FL",
        "city": "Lake Wales",
        "theatre_code": "0466",
        "path_name": "regal-eagle-ridge-mall-0466",
        "name": "Regal Eagle Ridge Mall",
        "address": "955 Eagle Ridge Drive & Hwy 27",
        "latitude": 27.9537,
        "longitude": -81.6111,
        "zip": "33859"
      }
    },
    {
      "item": {
        "state": "FL",
        "city": "Sarasota",
        "theatre_code": "0467",
        "path_name": "regal-hollywood-sarasota-0467",
        "name": "Regal Hollywood - Sarasota",
        "address": "1993 Main Street",
        "latitude": 27.3373,
        "longitude": -82.5316,
        "zip": "34321"
      }
    },
    {
      "item": {
        "state": "FL",
        "city": "Miami Beach",
        "theatre_code": "0482",
        "path_name": "regal-south-beach-0482",
        "name": "Regal South Beach",
        "address": "1120 Lincoln Road Mall",
        "latitude": 25.7897,
        "longitude": -80.1402,
        "zip": "33139"
      }
    },
    {
      "item": {
        "state": "FL",
        "city": "Ocala",
        "theatre_code": "0483",
        "path_name": "regal-hollywood-ocala-0483",
        "name": "Regal Hollywood - Ocala",
        "address": "2801 SW 27th Avenue",
        "latitude": 29.1597,
        "longitude": -82.1689,
        "zip": "34471"
      }
    },
    {
      "item": {
        "state": "SC",
        "city": "Greenville",
        "theatre_code": "0488",
        "path_name": "regal-hollywood-greenville-0488",
        "name": "Regal Hollywood - Greenville",
        "address": "1029 Woodruff Road",
        "latitude": 34.8336,
        "longitude": -82.3049,
        "zip": "29607"
      }
    },
    {
      "item": {
        "state": "TN",
        "city": "Nashville",
        "theatre_code": "0489",
        "path_name": "regal-hollywood-rpx-nashville-0489",
        "name": "Regal Hollywood - Nashville",
        "address": "719 Thompson Ln",
        "latitude": 36.1122,
        "longitude": -86.7666,
        "zip": "37204"
      }
    },
    {
      "item": {
        "state": "NY",
        "city": "Victor",
        "theatre_code": "0501",
        "path_name": "regal-eastview-mall-0501",
        "name": "Regal Eastview Mall",
        "address": "70 Eastview Mall Drive",
        "latitude": 43.0296,
        "longitude": -77.4395,
        "zip": "14564"
      }
    },
    {
      "item": {
        "state": "DE",
        "city": "Wilmington",
        "theatre_code": "0509",
        "path_name": "regal-brandywine-town-center-0509",
        "name": "Regal Brandywine Town Center",
        "address": "3300 Brandywine Parkway",
        "latitude": 39.8325,
        "longitude": -75.5361,
        "zip": "19803"
      }
    },
    {
      "item": {
        "state": "TN",
        "city": "Nashville",
        "theatre_code": "0513",
        "path_name": "regal-green-hills-0513",
        "name": "Regal Green Hills",
        "address": "3815 Greenhills Village Drive",
        "latitude": 36.1079,
        "longitude": -86.8165,
        "zip": "37215"
      }
    },
    {
      "item": {
        "state": "AR",
        "city": "North Little Rock",
        "theatre_code": "0541",
        "path_name": "regal-mccain-mall-0541",
        "name": "Regal McCain Mall",
        "address": "3929 McCain Boulevard",
        "latitude": 34.793,
        "longitude": -92.2267,
        "zip": "72116"
      }
    },
    {
      "item": {
        "state": "MD",
        "city": "Gambrills",
        "theatre_code": "0542",
        "path_name": "regal-waugh-chapel-0542",
        "name": "Regal Waugh Chapel",
        "address": "1419 S. Main Chapel Way",
        "latitude": 39.0377,
        "longitude": -76.6798,
        "zip": "21054"
      }
    },
    {
      "item": {
        "state": "NY",
        "city": "Nanuet",
        "theatre_code": "0558",
        "path_name": "regal-nanuet-rpx-0558",
        "name": "Regal Nanuet",
        "address": "6201 Fashion Drive",
        "latitude": 41.0969,
        "longitude": -74.0129,
        "zip": "10954"
      }
    },
    {
      "item": {
        "state": "MD",
        "city": "Laurel",
        "theatre_code": "0563",
        "path_name": "regal-laurel-towne-centre-0563",
        "name": "Regal Laurel Towne Centre",
        "address": "14716 Baltimore Ave",
        "latitude": 39.0945,
        "longitude": -76.8583,
        "zip": "20707"
      }
    },
    {
      "item": {
        "state": "NV",
        "city": "Las Vegas",
        "theatre_code": "0575",
        "path_name": "regal-summerlin-luxury-0575",
        "name": "Regal Summerlin Luxury",
        "address": "2070 Park Center Drive",
        "latitude": 36.149,
        "longitude": -115.332,
        "zip": "89135"
      }
    },
    {
      "item": {
        "state": "TX",
        "city": "San Antonio",
        "theatre_code": "0581",
        "path_name": "regal-huebner-oaks-0581",
        "name": "Regal Huebner Oaks",
        "address": "11075 W Interstate 10  Ste 1H",
        "latitude": 29.5487,
        "longitude": -98.5849,
        "zip": "78288"
      }
    },
    {
      "item": {
        "state": "VA",
        "city": "Springfield",
        "theatre_code": "0595",
        "path_name": "regal-springfield-town-center-0595",
        "name": "Regal Springfield Town Center",
        "address": "6859 Springfield Mall",
        "latitude": 38.7731,
        "longitude": -77.174,
        "zip": "22150"
      }
    },
    {
      "item": {
        "state": "MI",
        "city": "Lansing",
        "theatre_code": "0596",
        "path_name": "regal-lansing-mall-rpx-0596",
        "name": "Regal Lansing Mall",
        "address": "5330 West Saginaw Highway",
        "latitude": 42.7433,
        "longitude": -84.629,
        "zip": "48890"
      }
    },
    {
      "item": {
        "state": "WA",
        "city": "Kelso",
        "theatre_code": "0599",
        "path_name": "regal-three-rivers-mall-0599",
        "name": "Regal Three Rivers Mall",
        "address": "341 Three Rivers Drive",
        "latitude": 46.1386,
        "longitude": -122.9001,
        "zip": "98626"
      }
    },
    {
      "item": {
        "state": "AK",
        "city": "Fairbanks",
        "theatre_code": "0601",
        "path_name": "regal-goldstream-0601",
        "name": "Regal Goldstream",
        "address": "1855 Airport Way",
        "latitude": 64.8369,
        "longitude": -147.7578,
        "zip": "99701"
      }
    },
    {
      "item": {
        "state": "TN",
        "city": "Nashville",
        "theatre_code": "0615",
        "path_name": "regal-opry-mills-0615",
        "name": "Regal Opry Mills",
        "address": "570 Opry Mills Drive",
        "latitude": 36.2008,
        "longitude": -86.6905,
        "zip": "37214"
      }
    },
    {
      "item": {
        "state": "IL",
        "city": "Crystal Lake",
        "theatre_code": "0621",
        "path_name": "regal-crystal-lake-showplace-0621",
        "name": "Regal Crystal Lake Showplace",
        "address": "5000 W. Route 14",
        "latitude": 42.2278,
        "longitude": -88.2946,
        "zip": "60014"
      }
    },
    {
      "item": {
        "state": "NY",
        "city": "Ronkonkoma",
        "theatre_code": "0632",
        "path_name": "regal-ronkonkoma-0632",
        "name": "Regal Ronkonkoma",
        "address": "565 Portion Road",
        "latitude": 40.8307,
        "longitude": -73.0913,
        "zip": "11779"
      }
    },
    {
      "item": {
        "state": "OR",
        "city": "Portland",
        "theatre_code": "0633",
        "path_name": "regal-fox-tower-0633",
        "name": "Regal Fox Tower",
        "address": "846 S.W. Park Ave",
        "latitude": 45.5186,
        "longitude": -122.6811,
        "zip": "97205"
      }
    },
    {
      "item": {
        "state": "NV",
        "city": "Henderson",
        "theatre_code": "0637",
        "path_name": "regal-green-valley-ranch-0637",
        "name": "Regal Green Valley Ranch",
        "address": "2300 Paseo Verde",
        "latitude": 36.0218,
        "longitude": -115.0811,
        "zip": "89052"
      }
    },
    {
      "item": {
        "state": "OR",
        "city": "Tigard",
        "theatre_code": "0652",
        "path_name": "regal-bridgeport-village-0652",
        "name": "Regal Bridgeport Village",
        "address": "7329 SW Bridgeport Road",
        "latitude": 45.3969,
        "longitude": -122.7511,
        "zip": "97224"
      }
    },
    {
      "item": {
        "state": "ID",
        "city": "Coeur d'Alene",
        "theatre_code": "0654",
        "path_name": "regal-riverstone-0654",
        "name": "Regal Riverstone",
        "address": "2416 Old Mill Loop",
        "latitude": 47.6956,
        "longitude": -116.8088,
        "zip": "83814"
      }
    },
    {
      "item": {
        "state": "OR",
        "city": "Portland",
        "theatre_code": "0656",
        "path_name": "regal-pioneer-place-0656",
        "name": "Regal Pioneer Place",
        "address": "340 SW Morrison Street",
        "latitude": 45.518,
        "longitude": -122.675,
        "zip": "97204"
      }
    },
    {
      "item": {
        "state": "NV",
        "city": "Las Vegas",
        "theatre_code": "0659",
        "path_name": "regal-red-rock-0659",
        "name": "Regal Red Rock",
        "address": "11011 West Charleston Blvd",
        "latitude": 36.1566,
        "longitude": -115.3333,
        "zip": "89135"
      }
    },
    {
      "item": {
        "state": "WA",
        "city": "Everett",
        "theatre_code": "0663",
        "path_name": "regal-everett-rpx-0663",
        "name": "Regal Everett",
        "address": "1402 Everett Mall Way #133",
        "latitude": 47.9089,
        "longitude": -122.2136,
        "zip": "98208"
      }
    },
    {
      "item": {
        "state": "LA",
        "city": "Bossier City",
        "theatre_code": "0664",
        "path_name": "regal-louisiana-boardwalk-0664",
        "name": "Regal Louisiana Boardwalk",
        "address": "2 River Colony Drive",
        "latitude": 32.5158,
        "longitude": -93.7368,
        "zip": "71111"
      }
    },
    {
      "item": {
        "state": "CA",
        "city": "Corona",
        "theatre_code": "0665",
        "path_name": "regal-edwards-corona-crossings-rpx-0665",
        "name": "Regal Edwards Corona Crossings",
        "address": "2650 Tuscany Street",
        "latitude": 33.8234,
        "longitude": -117.5139,
        "zip": "92881"
      }
    },
    {
      "item": {
        "state": "OR",
        "city": "Eugene",
        "theatre_code": "0670",
        "path_name": "regal-valley-river-center-0670",
        "name": "Regal Valley River Center",
        "address": "500 Valley River Center",
        "latitude": 44.0686,
        "longitude": -123.1053,
        "zip": "97401"
      }
    },
    {
      "item": {
        "state": "VA",
        "city": "Christianburg",
        "theatre_code": "0671",
        "path_name": "regal-new-river-valley-0671",
        "name": "Regal New River Valley",
        "address": "110 New River Road",
        "latitude": 37.1653,
        "longitude": -80.4244,
        "zip": "24073"
      }
    },
    {
      "item": {
        "state": "WA",
        "city": "Lacey",
        "theatre_code": "0673",
        "path_name": "regal-martin-village-0673",
        "name": "Regal Martin Village",
        "address": "5400 East Martin Way",
        "latitude": 47.0502,
        "longitude": -122.8084,
        "zip": "98516"
      }
    },
    {
      "item": {
        "state": "MD",
        "city": "Salisbury",
        "theatre_code": "0674",
        "path_name": "regal-salisbury-rpx-0674",
        "name": "Regal Salisbury",
        "address": "2322 North Salisbury Blvd",
        "latitude": 38.389,
        "longitude": -75.578,
        "zip": "21801"
      }
    },
    {
      "item": {
        "state": "NY",
        "city": "Buffalo",
        "theatre_code": "0675",
        "path_name": "regal-walden-galleria-rpx-0675",
        "name": "Regal Walden Galleria",
        "address": "TH201 - Walden Galleria",
        "latitude": 42.9109,
        "longitude": -78.7629,
        "zip": "14225"
      }
    },
    {
      "item": {
        "state": "NY",
        "city": "Ithaca",
        "theatre_code": "0677",
        "path_name": "regal-ithaca-mall-0677",
        "name": "Regal Ithaca Mall",
        "address": "40 Catherwood Road",
        "latitude": 42.484,
        "longitude": -76.488,
        "zip": "14850"
      }
    },
    {
      "item": {
        "state": "OR",
        "city": "Salem",
        "theatre_code": "0679",
        "path_name": "regal-willamette-town-center-0679",
        "name": "Regal Willamette Town Center",
        "address": "831 Lancaster Dr NE Suite #8",
        "latitude": 44.9415,
        "longitude": -122.9831,
        "zip": "97301"
      }
    },
    {
      "item": {
        "state": "OH",
        "city": "Lima",
        "theatre_code": "0680",
        "path_name": "regal-american-mall-0680",
        "name": "Regal American Mall",
        "address": "2830 West Elm Street",
        "latitude": 40.7378,
        "longitude": -84.1655,
        "zip": "45805"
      }
    },
    {
      "item": {
        "state": "TN",
        "city": "Knoxville",
        "theatre_code": "0682",
        "path_name": "regal-pinnacle-0682",
        "name": "Regal Pinnacle",
        "address": "11240 Parkside Drive",
        "latitude": 35.90011,
        "longitude": -84.15576,
        "zip": "37922"
      }
    },
    {
      "item": {
        "state": "FL",
        "city": "Miami",
        "theatre_code": "0683",
        "path_name": "regal-southland-mall-0683",
        "name": "Regal Southland Mall",
        "address": "20505 S Dixie Hwy Suite 1301",
        "latitude": 25.5772,
        "longitude": -80.3689,
        "zip": "33197"
      }
    },
    {
      "item": {
        "state": "FL",
        "city": "Fort Myers",
        "theatre_code": "0684",
        "path_name": "regal-gulf-coast-0684",
        "name": "Regal Gulf Coast",
        "address": "10028 Gulf Center Drive",
        "latitude": 26.4852,
        "longitude": -81.788,
        "zip": "33967"
      }
    },
    {
      "item": {
        "state": "FL",
        "city": "Kissimmee",
        "theatre_code": "0687",
        "path_name": "regal-the-loop-0687",
        "name": "Regal The Loop",
        "address": "3232 N. John Young Parkway",
        "latitude": 28.3438,
        "longitude": -81.4246,
        "zip": "34741"
      }
    },
    {
      "item": {
        "state": "NY",
        "city": "Glendale",
        "theatre_code": "0688",
        "path_name": "regal-atlas-park-0688",
        "name": "Regal Atlas Park",
        "address": "80-28 Cooper Ave, Suite #6216",
        "latitude": 40.709,
        "longitude": -73.8705,
        "zip": "11385"
      }
    },
    {
      "item": {
        "state": "TN",
        "city": "Knoxville",
        "theatre_code": "0690",
        "path_name": "regal-riviera-0690",
        "name": "Regal Riviera",
        "address": "510 South Gay Street",
        "latitude": 35.9658,
        "longitude": -83.9185,
        "zip": "37902"
      }
    },
    {
      "item": {
        "state": "NY",
        "city": "Deer Park",
        "theatre_code": "0692",
        "path_name": "regal-deer-park-0692",
        "name": "Regal Deer Park",
        "address": "1050 The Arches Circle",
        "latitude": 40.7624,
        "longitude": -73.3095,
        "zip": "11729"
      }
    },
    {
      "item": {
        "state": "CO",
        "city": "Grand Junction",
        "theatre_code": "0698",
        "path_name": "regal-canyon-view-0698",
        "name": "Regal Canyon View",
        "address": "648 Market Street",
        "latitude": 39.0928,
        "longitude": -108.6053,
        "zip": "81505"
      }
    },
    {
      "item": {
        "state": "NY",
        "city": "Orchard Park",
        "theatre_code": "0700",
        "path_name": "regal-quaker-crossing-0700",
        "name": "Regal Quaker Crossing",
        "address": "3450 Amelia Drive",
        "latitude": 42.7892,
        "longitude": -78.7741,
        "zip": "14127"
      }
    },
    {
      "item": {
        "state": "GA",
        "city": "Buford",
        "theatre_code": "0701",
        "path_name": "regal-mall-of-georgia-0701",
        "name": "Regal Mall Of Georgia",
        "address": "3333 Buford Drive, Suite 3000",
        "latitude": 34.0665,
        "longitude": -83.9834,
        "zip": "30519"
      }
    },
    {
      "item": {
        "state": "CA",
        "city": "La Habra",
        "theatre_code": "0704",
        "path_name": "regal-la-habra-0704",
        "name": "Regal La Habra",
        "address": "1351 W. Imperial Hwy",
        "latitude": 33.917,
        "longitude": -117.9608,
        "zip": "90631"
      }
    },
    {
      "item": {
        "state": "NJ",
        "city": "North Brunswick",
        "theatre_code": "0705",
        "path_name": "regal-commerce-center-rpx-0705",
        "name": "Regal Commerce Center",
        "address": "2399 Route 1 South",
        "latitude": 40.4427,
        "longitude": -74.5053,
        "zip": "08920"
      }
    },
    {
      "item": {
        "state": "OH",
        "city": "Medina",
        "theatre_code": "0707",
        "path_name": "regal-medina-0707",
        "name": "Regal Medina",
        "address": "200 West Reagan Pkwy",
        "latitude": 41.1562,
        "longitude": -81.8752,
        "zip": "44256"
      }
    },
    {
      "item": {
        "state": "CA",
        "city": "Oceanside",
        "theatre_code": "0708",
        "path_name": "regal-oceanside-0708",
        "name": "Regal Oceanside",
        "address": "401 Mission Ave.",
        "latitude": 33.195,
        "longitude": -117.3798,
        "zip": "92054"
      }
    },
    {
      "item": {
        "state": "FL",
        "city": "Pembroke Pines",
        "theatre_code": "0709",
        "path_name": "regal-westfork-0709",
        "name": "Regal Westfork",
        "address": "15977 Pines Blvd. on Dykes Roa",
        "latitude": 26.0077,
        "longitude": -80.3605,
        "zip": "33082"
      }
    },
    {
      "item": {
        "state": "VA",
        "city": "Fredericksburg",
        "theatre_code": "0712",
        "path_name": "regal-fredericksburg-0712",
        "name": "Regal Fredericksburg",
        "address": "3301 Plank Road Route 3W",
        "latitude": 38.2961,
        "longitude": -77.5168,
        "zip": "22407"
      }
    },
    {
      "item": {
        "state": "VA",
        "city": "Virginia Beach",
        "theatre_code": "0718",
        "path_name": "regal-columbus-0718",
        "name": "Regal Columbus",
        "address": "104 Constitution Drive",
        "latitude": 36.8401,
        "longitude": -76.1314,
        "zip": "23462"
      }
    },
    {
      "item": {
        "state": "FL",
        "city": "Winter Park",
        "theatre_code": "0721",
        "path_name": "regal-winter-park-village-0721",
        "name": "Regal Winter Park Village",
        "address": "510 North Orlando Ave",
        "latitude": 28.603,
        "longitude": -81.365,
        "zip": "32789"
      }
    },
    {
      "item": {
        "state": "FL",
        "city": "Port Charlotte",
        "theatre_code": "0723",
        "path_name": "regal-town-center-port-charlotte-0723",
        "name": "Regal Town Center - Port Charlotte",
        "address": "1441 Tamiami Trail, Unit 701",
        "latitude": 27.011,
        "longitude": -82.142,
        "zip": "33948"
      }
    },
    {
      "item": {
        "state": "GA",
        "city": "Augusta",
        "theatre_code": "0724",
        "path_name": "regal-augusta-exchange-0724",
        "name": "Regal Augusta Exchange",
        "address": "1144 Agerton Lane",
        "latitude": 33.4884,
        "longitude": -82.0781,
        "zip": "30909"
      }
    },
    {
      "item": {
        "state": "KY",
        "city": "Lexington",
        "theatre_code": "0728",
        "path_name": "regal-hamburg-pavilion-0728",
        "name": "Regal Hamburg Pavilion",
        "address": "1949 Starshoot Road",
        "latitude": 38.021,
        "longitude": -84.419,
        "zip": "40509"
      }
    },
    {
      "item": {
        "state": "VA",
        "city": "Richmond",
        "theatre_code": "0730",
        "path_name": "regal-short-pump-0730",
        "name": "Regal Short Pump",
        "address": "11650 West Broad Street",
        "latitude": 37.6532,
        "longitude": -77.6136,
        "zip": "23221"
      }
    },
    {
      "item": {
        "state": "FL",
        "city": "Jensen Beach",
        "theatre_code": "0731",
        "path_name": "regal-treasure-coast-mall-0731",
        "name": "Regal Treasure Coast Mall",
        "address": "3290 North West Federal Highwy",
        "latitude": 27.2434,
        "longitude": -80.2687,
        "zip": "34957"
      }
    },
    {
      "item": {
        "state": "FL",
        "city": "Orlando",
        "theatre_code": "0734",
        "path_name": "regal-waterford-lakes-0734",
        "name": "Regal Waterford Lakes",
        "address": "541 North Alafaya Trail",
        "latitude": 28.5558,
        "longitude": -81.2004,
        "zip": "32828"
      }
    },
    {
      "item": {
        "state": "VA",
        "city": "Harrisonburg",
        "theatre_code": "0735",
        "path_name": "regal-harrisonburg-0735",
        "name": "Regal Harrisonburg",
        "address": "381 University Blvd.",
        "latitude": 38.4303,
        "longitude": -78.86,
        "zip": "22801"
      }
    },
    {
      "item": {
        "state": "CA",
        "city": "Rolling Hills Est",
        "theatre_code": "0748",
        "path_name": "regal-promenade-0748",
        "name": "Regal Promenade",
        "address": "550 Deep Valley Dr, Suite 336",
        "latitude": 33.7709,
        "longitude": -118.3717,
        "zip": "90274"
      }
    },
    {
      "item": {
        "state": "PA",
        "city": "Lancaster",
        "theatre_code": "0754",
        "path_name": "regal-manor-0754",
        "name": "Regal Manor",
        "address": "1246 Millersville Pike",
        "latitude": 40.0272,
        "longitude": -76.3266,
        "zip": "17603"
      }
    },
    {
      "item": {
        "state": "OH",
        "city": "Elyria",
        "theatre_code": "0755",
        "path_name": "regal-cobblestone-square-0755",
        "name": "Regal Cobblestone Square",
        "address": "5500 Cobblestone Road",
        "latitude": 41.4191,
        "longitude": -82.0827,
        "zip": "44035"
      }
    },
    {
      "item": {
        "state": "OR",
        "city": "Bend",
        "theatre_code": "0758",
        "path_name": "regal-old-mill-0758",
        "name": "Regal Old Mill",
        "address": "680 SW Powerhouse Drive",
        "latitude": 44.0393,
        "longitude": -121.3265,
        "zip": "97702"
      }
    },
    {
      "item": {
        "state": "AL",
        "city": "Birmingham",
        "theatre_code": "0760",
        "path_name": "regal-trussville-0760",
        "name": "Regal Trussville",
        "address": "5895 Trussville Crossings Pkwy",
        "latitude": 33.6378,
        "longitude": -86.6313,
        "zip": "35235"
      }
    },
    {
      "item": {
        "state": "TX",
        "city": "San Antonio",
        "theatre_code": "0765",
        "path_name": "regal-cielo-vista-0765",
        "name": "Regal Cielo Vista",
        "address": "2828 Cinema Ridge",
        "latitude": 29.4675,
        "longitude": -98.6154,
        "zip": "78238"
      }
    },
    {
      "item": {
        "state": "CA",
        "city": "Sacramento",
        "theatre_code": "0774",
        "path_name": "regal-natomas-marketplace-0774",
        "name": "Regal Natomas Marketplace",
        "address": "3561 Truxel Road",
        "latitude": 38.6347,
        "longitude": -121.5025,
        "zip": "95834"
      }
    },
    {
      "item": {
        "state": "TX",
        "city": "Live Oak",
        "theatre_code": "0795",
        "path_name": "regal-live-oak-rpx-0795",
        "name": "Regal Live Oak",
        "address": "7901 Pat Booker Road",
        "latitude": 29.562,
        "longitude": -98.3314,
        "zip": "78233"
      }
    },
    {
      "item": {
        "state": "OR",
        "city": "Portland",
        "theatre_code": "0807",
        "path_name": "regal-lloyd-center-0807",
        "name": "Regal Lloyd Center",
        "address": "1510 NE Multnomah Street",
        "latitude": 45.5309,
        "longitude": -122.6512,
        "zip": "97232"
      }
    },
    {
      "item": {
        "state": "OR",
        "city": "Albany",
        "theatre_code": "0833",
        "path_name": "regal-albany-cinemas-0833",
        "name": "Regal Albany",
        "address": "1350 SE Waverly Drive",
        "latitude": 44.6295,
        "longitude": -123.0721,
        "zip": "97322"
      }
    },
    {
      "item": {
        "state": "NV",
        "city": "Las Vegas",
        "theatre_code": "0837",
        "path_name": "regal-boulder-station-0837",
        "name": "Regal Boulder Station",
        "address": "4111 Boulder Highway",
        "latitude": 36.1319,
        "longitude": -115.0851,
        "zip": "89121"
      }
    },
    {
      "item": {
        "state": "NV",
        "city": "Henderson",
        "theatre_code": "0838",
        "path_name": "regal-sunset-station-0838",
        "name": "Regal Sunset Station",
        "address": "1301-A W Sunset Road",
        "latitude": 36.0636,
        "longitude": -115.0426,
        "zip": "89120"
      }
    },
    {
      "item": {
        "state": "WA",
        "city": "Vancouver",
        "theatre_code": "0843",
        "path_name": "regal-vancouver-plaza-0843",
        "name": "Regal Vancouver Plaza",
        "address": "7800  N.E. Fourth Plain",
        "latitude": 45.6488,
        "longitude": -122.5956,
        "zip": "98662"
      }
    },
    {
      "item": {
        "state": "WA",
        "city": "Vancouver",
        "theatre_code": "0845",
        "path_name": "regal-cascade-0845",
        "name": "Regal Cascade",
        "address": "1101 SE 160th Avenue",
        "latitude": 45.6127,
        "longitude": -122.5077,
        "zip": "98683"
      }
    },
    {
      "item": {
        "state": "WA",
        "city": "Vancouver",
        "theatre_code": "0846",
        "path_name": "regal-cinema-99-0846",
        "name": "Regal Cinema 99",
        "address": "9010 NE Hwy 99",
        "latitude": 45.6883,
        "longitude": -122.6628,
        "zip": "98663"
      }
    },
    {
      "item": {
        "state": "WA",
        "city": "Vancouver",
        "theatre_code": "0847",
        "path_name": "regal-city-center-0847",
        "name": "Regal City Center",
        "address": "801 C Street",
        "latitude": 45.6275,
        "longitude": -122.668,
        "zip": "98660"
      }
    },
    {
      "item": {
        "state": "OR",
        "city": "Hillsboro",
        "theatre_code": "0850",
        "path_name": "regal-evergreen-parkway-rpx-0850",
        "name": "Regal Evergreen Parkway",
        "address": "2625 NE 106th Ave",
        "latitude": 45.5408,
        "longitude": -122.8686,
        "zip": "97124"
      }
    },
    {
      "item": {
        "state": "OR",
        "city": "Oregon City",
        "theatre_code": "0853",
        "path_name": "regal-hilltop-cinema-0853",
        "name": "Regal Hilltop",
        "address": "325 Beavercreek Road",
        "latitude": 45.3346,
        "longitude": -122.5938,
        "zip": "97045"
      }
    },
    {
      "item": {
        "state": "OR",
        "city": "Hillsboro",
        "theatre_code": "0855",
        "path_name": "regal-movies-on-tv-0855",
        "name": "Regal Movies On TV",
        "address": "SW 2929 234th Avenue",
        "latitude": 45.4987,
        "longitude": -122.9184,
        "zip": "97123"
      }
    },
    {
      "item": {
        "state": "OR",
        "city": "Gresham",
        "theatre_code": "0856",
        "path_name": "regal-stark-street-0856",
        "name": "Regal Stark Street",
        "address": "2929 N.E. Kane Drive",
        "latitude": 45.5184,
        "longitude": -122.3971,
        "zip": "97060"
      }
    },
    {
      "item": {
        "state": "OR",
        "city": "Salem",
        "theatre_code": "0863",
        "path_name": "regal-santiam-0863",
        "name": "Regal Santiam",
        "address": "365 Lancaster Drive SE",
        "latitude": 44.9246,
        "longitude": -122.9832,
        "zip": "97317"
      }
    },
    {
      "item": {
        "state": "WA",
        "city": "Auburn",
        "theatre_code": "0877",
        "path_name": "regal-auburn-washington-0877",
        "name": "Regal Auburn - Washington",
        "address": "1101 Outlet Collection Way, Ste. 901",
        "latitude": 47.2996,
        "longitude": -122.2405,
        "zip": "98001"
      }
    },
    {
      "item": {
        "state": "WA",
        "city": "Poulsbo",
        "theatre_code": "0880",
        "path_name": "regal-poulsbo-0880",
        "name": "Regal Poulsbo",
        "address": "750 NW Edvard Street",
        "latitude": 47.744,
        "longitude": -122.6558,
        "zip": "98370"
      }
    },
    {
      "item": {
        "state": "WA",
        "city": "Spokane",
        "theatre_code": "0883",
        "path_name": "regal-northtown-mall-0883",
        "name": "Regal Northtown Mall",
        "address": "4750 North Division Street",
        "latitude": 47.701,
        "longitude": -117.411,
        "zip": "99207"
      }
    },
    {
      "item": {
        "state": "WA",
        "city": "Puyallup",
        "theatre_code": "0885",
        "path_name": "regal-south-hill-cinema-0885",
        "name": "Regal South Hill",
        "address": "3500 S Meridian",
        "latitude": 47.1673,
        "longitude": -122.2918,
        "zip": "98373"
      }
    },
    {
      "item": {
        "state": "WA",
        "city": "Lakewood",
        "theatre_code": "0887",
        "path_name": "regal-lakewood-rpx-0887",
        "name": "Regal Lakewood",
        "address": "2410 South 84th Street",
        "latitude": 47.1811,
        "longitude": -122.4672,
        "zip": "98499"
      }
    },
    {
      "item": {
        "state": "WA",
        "city": "Spokane Valley",
        "theatre_code": "0895",
        "path_name": "regal-spokane-valley-0895",
        "name": "Regal Spokane Valley",
        "address": "14760 E Indiana Avenue",
        "latitude": 47.6708,
        "longitude": -117.1947,
        "zip": "99216"
      }
    },
    {
      "item": {
        "state": "WA",
        "city": "Redmond",
        "theatre_code": "0904",
        "path_name": "regal-bella-bottega-0904",
        "name": "Regal Bella Bottega",
        "address": "8890 NE 161st Avenue",
        "latitude": 47.6811,
        "longitude": -122.1232,
        "zip": "98052"
      }
    },
    {
      "item": {
        "state": "WA",
        "city": "Bellevue",
        "theatre_code": "0905",
        "path_name": "regal-crossroads-bellevue-0905",
        "name": "Regal Crossroads - Bellevue",
        "address": "1200  156th Avenue NE",
        "latitude": 47.6207,
        "longitude": -122.131,
        "zip": "98007"
      }
    },
    {
      "item": {
        "state": "WA",
        "city": "Lynnwood",
        "theatre_code": "0909",
        "path_name": "regal-alderwood-rpx-0909",
        "name": "Regal Alderwood",
        "address": "3501 184th St. SW",
        "latitude": 47.8323,
        "longitude": -122.2793,
        "zip": "98037"
      }
    },
    {
      "item": {
        "state": "AK",
        "city": "Anchorage",
        "theatre_code": "0922",
        "path_name": "regal-dimond-center-cinemas-0922",
        "name": "Regal Dimond Center",
        "address": "800 E. Dimond  Blvd, Suite 210",
        "latitude": 61.1447,
        "longitude": -149.86771,
        "zip": "99515"
      }
    },
    {
      "item": {
        "state": "TX",
        "city": "San Antonio",
        "theatre_code": "0939",
        "path_name": "regal-alamo-quarry-0939",
        "name": "Regal Alamo Quarry",
        "address": "255 E.Basse",
        "latitude": 29.4993,
        "longitude": -98.4798,
        "zip": "78209"
      }
    },
    {
      "item": {
        "state": "TX",
        "city": "San Antonio",
        "theatre_code": "0940",
        "path_name": "regal-northwoods-0940",
        "name": "Regal Northwoods",
        "address": "17640 Henderson Pass",
        "latitude": 29.6041,
        "longitude": -98.4641,
        "zip": "78232"
      }
    },
    {
      "item": {
        "state": "TX",
        "city": "Austin",
        "theatre_code": "0949",
        "path_name": "regal-gateway-0949",
        "name": "Regal Gateway",
        "address": "9700 Stonelake Blvd",
        "latitude": 30.3878,
        "longitude": -97.7396,
        "zip": "78759"
      }
    },
    {
      "item": {
        "state": "TX",
        "city": "Austin",
        "theatre_code": "0950",
        "path_name": "regal-metropolitan-0950",
        "name": "Regal Metropolitan",
        "address": "901 Little Texas Lane",
        "latitude": 30.1982,
        "longitude": -97.7699,
        "zip": "78745"
      }
    },
    {
      "item": {
        "state": "TX",
        "city": "Austin",
        "theatre_code": "0953",
        "path_name": "regal-westgate-0953",
        "name": "Regal Westgate",
        "address": "4477 South Lamar Blvd.",
        "latitude": 30.2315,
        "longitude": -97.8005,
        "zip": "78745"
      }
    },
    {
      "item": {
        "state": "FL",
        "city": "Miami",
        "theatre_code": "0996",
        "path_name": "regal-kendall-village-0996",
        "name": "Regal Kendall Village",
        "address": "8595 S.W. 124 Avenue",
        "latitude": 25.6873,
        "longitude": -80.3947,
        "zip": "33186"
      }
    },
    {
      "item": {
        "state": "CA",
        "city": "Costa Mesa",
        "theatre_code": "1007",
        "path_name": "regal-edwards-metro-pointe-1007",
        "name": "Regal Edwards Metro Pointe",
        "address": "901 South Coast Drive",
        "latitude": 33.6913,
        "longitude": -117.8918,
        "zip": "92626"
      }
    },
    {
      "item": {
        "state": "CA",
        "city": "Camarillo",
        "theatre_code": "1009",
        "path_name": "regal-edwards-camarillo-palace-1009",
        "name": "Regal Edwards Camarillo Palace",
        "address": "680 Ventura Boulevard",
        "latitude": 34.2171,
        "longitude": -119.0632,
        "zip": "93010"
      }
    },
    {
      "item": {
        "state": "CA",
        "city": "Irvine",
        "theatre_code": "1010",
        "path_name": "regal-edwards-irvine-spectrum-1010",
        "name": "Regal Irvine Spectrum",
        "address": "500 Spectrum Center Drive",
        "latitude": 33.6512,
        "longitude": -117.7444,
        "zip": "92618"
      }
    },
    {
      "item": {
        "state": "CA",
        "city": "La Verne",
        "theatre_code": "1012",
        "path_name": "regal-edwards-la-verne-1012",
        "name": "Regal Edwards La Verne",
        "address": "1950 East Foothill Boulevard",
        "latitude": 34.113,
        "longitude": -117.7683,
        "zip": "91750"
      }
    },
    {
      "item": {
        "state": "CA",
        "city": "Cerritos",
        "theatre_code": "1018",
        "path_name": "regal-edwards-cerritos-1018",
        "name": "Regal Edwards Cerritos",
        "address": "12761 Towne Center Drive",
        "latitude": 33.8697,
        "longitude": -118.057,
        "zip": "90703"
      }
    },
    {
      "item": {
        "state": "CA",
        "city": "Newport Beach",
        "theatre_code": "1024",
        "path_name": "regal-edwards-big-newport-rpx-1024",
        "name": "Regal Edwards Big Newport",
        "address": "300 Newport Center Drive East",
        "latitude": 33.611,
        "longitude": -117.8754,
        "zip": "92660"
      }
    },
    {
      "item": {
        "state": "CA",
        "city": "Irvine",
        "theatre_code": "1025",
        "path_name": "regal-edwards-university-town-center-1025",
        "name": "Regal University Town Center",
        "address": "4245 Campus Drive",
        "latitude": 33.6501,
        "longitude": -117.8386,
        "zip": "92616"
      }
    },
    {
      "item": {
        "state": "CA",
        "city": "Ontario",
        "theatre_code": "1026",
        "path_name": "regal-edwards-ontario-palace-1026",
        "name": "Regal Edwards Ontario Palace",
        "address": "4900 East 4th Street",
        "latitude": 34.0767,
        "longitude": -117.5486,
        "zip": "91764"
      }
    },
    {
      "item": {
        "state": "ID",
        "city": "Boise",
        "theatre_code": "1027",
        "path_name": "regal-edwards-boise-1027",
        "name": "Regal Edwards Boise",
        "address": "7701 W Overland Road",
        "latitude": 43.5904,
        "longitude": -116.2764,
        "zip": "83709"
      }
    },
    {
      "item": {
        "state": "CA",
        "city": "Brea",
        "theatre_code": "1028",
        "path_name": "regal-edwards-brea-east-1028",
        "name": "Regal Edwards Brea East",
        "address": "155 West  Birch Street",
        "latitude": 33.919,
        "longitude": -117.8997,
        "zip": "92821"
      }
    },
    {
      "item": {
        "state": "CA",
        "city": "West Covina",
        "theatre_code": "1030",
        "path_name": "regal-edwards-west-covina-1030",
        "name": "Regal Edwards West Covina",
        "address": "1200 Lakes Drive",
        "latitude": 34.0699,
        "longitude": -117.9218,
        "zip": "91790"
      }
    },
    {
      "item": {
        "state": "CA",
        "city": "Bakersfield",
        "theatre_code": "1031",
        "path_name": "regal-edwards-bakersfield-1031",
        "name": "Regal Edwards Bakersfield",
        "address": "9000-G Ming Avenue",
        "latitude": 35.3393,
        "longitude": -119.1017,
        "zip": "93304"
      }
    },
    {
      "item": {
        "state": "CA",
        "city": "Aliso Viejo",
        "theatre_code": "1032",
        "path_name": "regal-edwards-aliso-viejo-1032",
        "name": "Regal Edwards Aliso Viejo",
        "address": "26701 Aliso Creek Road",
        "latitude": 33.5548,
        "longitude": -117.7135,
        "zip": "92656"
      }
    },
    {
      "item": {
        "state": "CA",
        "city": "Fresno",
        "theatre_code": "1033",
        "path_name": "regal-fresno-river-park-1033",
        "name": "Regal Fresno River Park",
        "address": "250 Paseo Del Centro",
        "latitude": 36.8508,
        "longitude": -119.7898,
        "zip": "93720"
      }
    },
    {
      "item": {
        "state": "CA",
        "city": "San Marcos",
        "theatre_code": "1034",
        "path_name": "regal-edwards-san-marcos-1034",
        "name": "Regal Edwards San Marcos",
        "address": "1180 W San Marcos Boulevard",
        "latitude": 33.1337,
        "longitude": -117.192,
        "zip": "92078"
      }
    },
    {
      "item": {
        "state": "CA",
        "city": "Mission Viejo",
        "theatre_code": "1035",
        "path_name": "regal-edwards-kaleidoscope-1035",
        "name": "Regal Edwards Kaleidoscope",
        "address": "27741 Crown Valley Pkwy #301",
        "latitude": 33.5638,
        "longitude": -117.6605,
        "zip": "92691"
      }
    },
    {
      "item": {
        "state": "CA",
        "city": "Ontario",
        "theatre_code": "1037",
        "path_name": "regal-edwards-ontario-mountain-village-1037",
        "name": "Regal Edwards Ontario Mountain Village",
        "address": "1575 North Mountain Avenue",
        "latitude": 34.0862,
        "longitude": -117.6705,
        "zip": "91762"
      }
    },
    {
      "item": {
        "state": "CA",
        "city": "Santa Clarita",
        "theatre_code": "1038",
        "path_name": "regal-edwards-valencia-1038",
        "name": "Regal Valencia",
        "address": "24435 Town Center Drive",
        "latitude": 34.4108,
        "longitude": -118.5608,
        "zip": "91355"
      }
    },
    {
      "item": {
        "state": "ID",
        "city": "Nampa",
        "theatre_code": "1039",
        "path_name": "regal-edwards-nampa-spectrum-1039",
        "name": "Regal Edwards Nampa Spectrum",
        "address": "2001 North Cassia Street",
        "latitude": 43.601,
        "longitude": -116.602,
        "zip": "83651"
      }
    },
    {
      "item": {
        "state": "ID",
        "city": "Ammon",
        "theatre_code": "1040",
        "path_name": "regal-edwards-grand-teton-1040",
        "name": "Regal Edwards Grand Teton",
        "address": "2707 South 25th East",
        "latitude": 43.47512,
        "longitude": -111.98264,
        "zip": "83404"
      }
    },
    {
      "item": {
        "state": "CA",
        "city": "Long Beach",
        "theatre_code": "1042",
        "path_name": "regal-edwards-long-beach-1042",
        "name": "Regal Long Beach",
        "address": "7501 East Carson",
        "latitude": 33.8314,
        "longitude": -118.0878,
        "zip": "90810"
      }
    },
    {
      "item": {
        "state": "CA",
        "city": "San Diego",
        "theatre_code": "1043",
        "path_name": "regal-edwards-mira-mesa-1043",
        "name": "Regal Edwards Mira Mesa",
        "address": "10733 Westview Parkway",
        "latitude": 32.913,
        "longitude": -117.1421,
        "zip": "92126"
      }
    },
    {
      "item": {
        "state": "CA",
        "city": "South Gate",
        "theatre_code": "1044",
        "path_name": "regal-edwards-south-gate-1044",
        "name": "Regal Edwards South Gate",
        "address": "8630 Garfield Avenue",
        "latitude": 33.953,
        "longitude": -118.163,
        "zip": "90280"
      }
    },
    {
      "item": {
        "state": "CA",
        "city": "Temecula",
        "theatre_code": "1045",
        "path_name": "regal-edwards-temecula-1045",
        "name": "Regal Edwards Temecula",
        "address": "40750 Winchester Road",
        "latitude": 33.5251,
        "longitude": -117.1521,
        "zip": "92591"
      }
    },
    {
      "item": {
        "state": "CA",
        "city": "Fairfield",
        "theatre_code": "1046",
        "path_name": "regal-edwards-fairfield-1046",
        "name": "Regal Edwards Fairfield",
        "address": "1549 Gateway Boulevard",
        "latitude": 38.2632,
        "longitude": -122.0551,
        "zip": "94533"
      }
    },
    {
      "item": {
        "state": "CA",
        "city": "Santa Clarita",
        "theatre_code": "1047",
        "path_name": "regal-edwards-canyon-country-1047",
        "name": "Regal Edwards Canyon Country",
        "address": "18800 Soledad Canyon Road",
        "latitude": 34.4156,
        "longitude": -118.4647,
        "zip": "91351"
      }
    },
    {
      "item": {
        "state": "CA",
        "city": "Irvine",
        "theatre_code": "1048",
        "path_name": "regal-edwards-market-place-1048",
        "name": "Regal Edwards Market Place",
        "address": "13782 Jamboree Road",
        "latitude": 33.7233,
        "longitude": -117.7902,
        "zip": "92602"
      }
    },
    {
      "item": {
        "state": "CA",
        "city": "El Cajon",
        "theatre_code": "1049",
        "path_name": "regal-edwards-rancho-san-diego-1049",
        "name": "Regal Edwards Rancho San Diego",
        "address": "2951 Jamacha Road",
        "latitude": 32.7398,
        "longitude": -116.9417,
        "zip": "92019"
      }
    },
    {
      "item": {
        "state": "TX",
        "city": "Houston",
        "theatre_code": "1051",
        "path_name": "regal-edwards-greenway-grand-palace-1051",
        "name": "Regal Greenway Grand Palace",
        "address": "3839 Weslayan Street",
        "latitude": 29.73112,
        "longitude": -95.44134,
        "zip": "77027"
      }
    },
    {
      "item": {
        "state": "TX",
        "city": "Houston",
        "theatre_code": "1052",
        "path_name": "regal-edwards-houston-marqe-1052",
        "name": "Regal Edwards Houston Marq'E",
        "address": "7600 Katy Freeway",
        "latitude": 29.7842,
        "longitude": -95.4783,
        "zip": "77024"
      }
    },
    {
      "item": {
        "state": "CA",
        "city": "Alhambra",
        "theatre_code": "1053",
        "path_name": "regal-edwards-alhambra-renaissance-1053",
        "name": "Regal Alhambra Renaissance",
        "address": "1 East Main Street",
        "latitude": 34.0958,
        "longitude": -118.1265,
        "zip": "91801"
      }
    },
    {
      "item": {
        "state": "NY",
        "city": "East Hampton",
        "theatre_code": "1138",
        "path_name": "regal-ua-east-hampton-cinema-1138",
        "name": "Regal UA East Hampton",
        "address": "30 Main Street",
        "latitude": 40.9637,
        "longitude": -72.1855,
        "zip": "11975"
      }
    },
    {
      "item": {
        "state": "NY",
        "city": "Forest Hills",
        "theatre_code": "1143",
        "path_name": "regal-ua-midway-1143",
        "name": "Regal UA Midway",
        "address": "108-22 Queens Blvd",
        "latitude": 40.7209,
        "longitude": -73.8442,
        "zip": "11375"
      }
    },
    {
      "item": {
        "state": "FL",
        "city": "Miami",
        "theatre_code": "1149",
        "path_name": "regal-ua-falls-1149",
        "name": "Regal Bistro at The Falls",
        "address": "9000 S.W. 136Th Street",
        "latitude": 25.6431,
        "longitude": -80.3393,
        "zip": "33158"
      }
    },
    {
      "item": {
        "state": "NY",
        "city": "Brooklyn",
        "theatre_code": "1159",
        "path_name": "regal-ua-sheepshead-bay-1159",
        "name": "Regal UA Sheepshead Bay",
        "address": "3907 Shore Pkwy",
        "latitude": 40.5858,
        "longitude": -73.931,
        "zip": "11235"
      }
    },
    {
      "item": {
        "state": "FL",
        "city": "Mary Esther",
        "theatre_code": "1195",
        "path_name": "regal-santa-rosa-1195",
        "name": "Regal Santa Rosa",
        "address": "300 Mary Esther Blvd.",
        "latitude": 30.4145,
        "longitude": -86.6541,
        "zip": "32569"
      }
    },
    {
      "item": {
        "state": "LA",
        "city": "Leesville",
        "theatre_code": "1200",
        "path_name": "regal-ua-lee-hills-1200",
        "name": "Regal UA Lee Hills",
        "address": "1350 Boone St",
        "latitude": 31.122,
        "longitude": -93.2724,
        "zip": "71446"
      }
    },
    {
      "item": {
        "state": "MS",
        "city": "Brookhaven",
        "theatre_code": "1204",
        "path_name": "regal-ua-westbrook-1204",
        "name": "Regal UA Westbrook",
        "address": "454 Brookway Blvd.",
        "latitude": 31.5801,
        "longitude": -90.4496,
        "zip": "39601"
      }
    },
    {
      "item": {
        "state": "FL",
        "city": "Lake City",
        "theatre_code": "1214",
        "path_name": "regal-ua-cinema-90-1214",
        "name": "Regal UA Cinema 90",
        "address": "2830 Highway 90 West",
        "latitude": 30.18,
        "longitude": -82.6805,
        "zip": "32055"
      }
    },
    {
      "item": {
        "state": "VA",
        "city": "Richmond",
        "theatre_code": "1226",
        "path_name": "regal-west-tower-cinemas-1226",
        "name": "Regal West Tower",
        "address": "8998 West Broad Street",
        "latitude": 37.6345,
        "longitude": -77.546,
        "zip": "23221"
      }
    },
    {
      "item": {
        "state": "FL",
        "city": "Apopka",
        "theatre_code": "1258",
        "path_name": "regal-wekiva-riverwalk-1258",
        "name": "Regal Wekiva Riverwalk",
        "address": "2141 North Semoran Blvd",
        "latitude": 28.6728,
        "longitude": -81.4706,
        "zip": "32703"
      }
    },
    {
      "item": {
        "state": "PA",
        "city": "Langhorne",
        "theatre_code": "1269",
        "path_name": "regal-ua-oxford-valley-1269",
        "name": "Regal UA Oxford Valley",
        "address": "403 Middletown Blvd",
        "latitude": 40.186,
        "longitude": -74.8779,
        "zip": "19047"
      }
    },
    {
      "item": {
        "state": "CA",
        "city": "La Canada",
        "theatre_code": "1270",
        "path_name": "regal-ua-la-canada-1270",
        "name": "Regal UA La Canada",
        "address": "1919 Verdugo Blvd",
        "latitude": 34.2056,
        "longitude": -118.2145,
        "zip": "91011"
      }
    },
    {
      "item": {
        "state": "NY",
        "city": "Westbury",
        "theatre_code": "1273",
        "path_name": "regal-westbury-1273",
        "name": "Regal Westbury",
        "address": "7000 Brush Hollow Road",
        "latitude": 40.7767,
        "longitude": -73.5596,
        "zip": "11590"
      }
    },
    {
      "item": {
        "state": "VA",
        "city": "Fairfax",
        "theatre_code": "1275",
        "path_name": "regal-fairfax-towne-center-1275",
        "name": "Regal Fairfax Towne Center",
        "address": "4110 West Ox Rd, Suite 12110",
        "latitude": 38.865,
        "longitude": -77.3679,
        "zip": "22033"
      }
    },
    {
      "item": {
        "state": "NJ",
        "city": "Sewell",
        "theatre_code": "1281",
        "path_name": "regal-ua-washington-township-1281",
        "name": "Regal UA Washington Township",
        "address": "121 Tuckahoe Road",
        "latitude": 39.7224,
        "longitude": -75.0309,
        "zip": "08080"
      }
    },
    {
      "item": {
        "state": "CA",
        "city": "Sacramento",
        "theatre_code": "1286",
        "path_name": "regal-ua-laguna-village-1286",
        "name": "Regal UA Laguna Village",
        "address": "8755 Center Parkway Drive",
        "latitude": 38.4384,
        "longitude": -121.4205,
        "zip": "95823"
      }
    },
    {
      "item": {
        "state": "PA",
        "city": "Philadelphia",
        "theatre_code": "1290",
        "path_name": "regal-ua-grant-plaza-1290",
        "name": "Regal UA Grant Plaza",
        "address": "1619 Grant Avenue",
        "latitude": 40.0855,
        "longitude": -75.0388,
        "zip": "19115"
      }
    },
    {
      "item": {
        "state": "MI",
        "city": "Walled Lake",
        "theatre_code": "1294",
        "path_name": "regal-ua-commerce-township-1294",
        "name": "Regal UA Commerce Township",
        "address": "3033 Springvale Drive",
        "latitude": 42.527,
        "longitude": -83.4374,
        "zip": "48377"
      }
    },
    {
      "item": {
        "state": "IN",
        "city": "Indianapolis",
        "theatre_code": "1299",
        "path_name": "regal-ua-galaxy-indianapolis-1299",
        "name": "Regal UA Galaxy - Indianapolis",
        "address": "8105 E. 96Th Street",
        "latitude": 39.925,
        "longitude": -86.0261,
        "zip": "46256"
      }
    },
    {
      "item": {
        "state": "TX",
        "city": "Dallas",
        "theatre_code": "1306",
        "path_name": "regal-ua-galaxy-theatre-dallas-1306",
        "name": "Regal UA Galaxy - Dallas",
        "address": "11801 Mccree Road",
        "latitude": 32.8726,
        "longitude": -96.687,
        "zip": "75238"
      }
    },
    {
      "item": {
        "state": "NM",
        "city": "Albuquerque",
        "theatre_code": "1307",
        "path_name": "regal-ua-cottonwood-1307",
        "name": "Regal UA Cottonwood",
        "address": "10000 NW Coors Blvd.",
        "latitude": 35.1925,
        "longitude": -106.6554,
        "zip": "87114"
      }
    },
    {
      "item": {
        "state": "CO",
        "city": "Denver",
        "theatre_code": "1308",
        "path_name": "regal-ua-colorado-center-1308",
        "name": "Regal UA Colorado Center",
        "address": "2000 S. Colorado Blvd, Suite C",
        "latitude": 39.6803,
        "longitude": -104.9402,
        "zip": "80222"
      }
    },
    {
      "item": {
        "state": "GA",
        "city": "Atlanta",
        "theatre_code": "1309",
        "path_name": "regal-perimeter-pointe-1309",
        "name": "Regal Perimeter Pointe",
        "address": "1155 Mt. Vernon Highway",
        "latitude": 33.9344,
        "longitude": -84.3501,
        "zip": "30338"
      }
    },
    {
      "item": {
        "state": "NY",
        "city": "Hampton Bays",
        "theatre_code": "1313",
        "path_name": "regal-ua-hampton-bays-1313",
        "name": "Regal UA Hampton Bays",
        "address": "119 W. Montauk Highway",
        "latitude": 40.8624,
        "longitude": -72.5602,
        "zip": "11946"
      }
    },
    {
      "item": {
        "state": "PA",
        "city": "Manayunk",
        "theatre_code": "1314",
        "path_name": "regal-ua-main-street-theatre-1314",
        "name": "Regal UA Main Street",
        "address": "3720-40 Main Street",
        "latitude": 40.0153,
        "longitude": -75.2097,
        "zip": "19127"
      }
    },
    {
      "item": {
        "state": "CO",
        "city": "Denver",
        "theatre_code": "1315",
        "path_name": "regal-ua-denver-pavilions-rpx-1315",
        "name": "Regal UA Denver Pavilions",
        "address": "500 16Th Street #310",
        "latitude": 39.7439,
        "longitude": -104.9901,
        "zip": "80202"
      }
    },
    {
      "item": {
        "state": "TX",
        "city": "Ft Worth",
        "theatre_code": "1317",
        "path_name": "regal-fossil-creek-1317",
        "name": "Regal Fossil Creek",
        "address": "N. 6100 Freeway",
        "latitude": 32.8532,
        "longitude": -97.3123,
        "zip": "76137"
      }
    },
    {
      "item": {
        "state": "NY",
        "city": "Mohegan Lake",
        "theatre_code": "1318",
        "path_name": "regal-ua-cortlandt-town-center-1318",
        "name": "Regal UA Cortlandt Town Center",
        "address": "3131 East Main Street",
        "latitude": 41.3199,
        "longitude": -73.8573,
        "zip": "10547"
      }
    },
    {
      "item": {
        "state": "NY",
        "city": "Farmingdale",
        "theatre_code": "1319",
        "path_name": "regal-ua-farmingdale-1319",
        "name": "Regal UA Farmingdale",
        "address": "20 Michael Avenue",
        "latitude": 40.7258,
        "longitude": -73.4246,
        "zip": "11735"
      }
    },
    {
      "item": {
        "state": "NY",
        "city": "New York",
        "theatre_code": "1320",
        "path_name": "regal-union-square-screenx-4dx-1320",
        "name": "Regal Union Square",
        "address": "850 Broadway",
        "latitude": 40.734,
        "longitude": -73.9912,
        "zip": "10003"
      }
    },
    {
      "item": {
        "state": "PA",
        "city": "King Of Prussia",
        "theatre_code": "1329",
        "path_name": "regal-ua-king-of-prussia-1329",
        "name": "Regal UA King Of Prussia",
        "address": "300 Goddard Blvd",
        "latitude": 40.0908,
        "longitude": -75.3866,
        "zip": "19406"
      }
    },
    {
      "item": {
        "state": "NY",
        "city": "Long Island City",
        "theatre_code": "1333",
        "path_name": "regal-ua-kaufman-astoria-rpx-1333",
        "name": "Regal UA Kaufman Astoria",
        "address": "35-30 38th Street",
        "latitude": 40.7556,
        "longitude": -73.9236,
        "zip": "11101"
      }
    },
    {
      "item": {
        "state": "NY",
        "city": "New York",
        "theatre_code": "1335",
        "path_name": "regal-battery-park-1335",
        "name": "Regal Battery Park",
        "address": "102 North End Ave.",
        "latitude": 40.7147,
        "longitude": -74.0155,
        "zip": "10282"
      }
    },
    {
      "item": {
        "state": "GA",
        "city": "Atlanta",
        "theatre_code": "1346",
        "path_name": "regal-atlantic-station-1346",
        "name": "Regal Atlantic Station",
        "address": "261 19th Street NW, Suite 1250",
        "latitude": 33.7938,
        "longitude": -84.396,
        "zip": "30363"
      }
    },
    {
      "item": {
        "state": "NY",
        "city": "Lynbrook",
        "theatre_code": "1348",
        "path_name": "regal-lynbrook-rpx-1348",
        "name": "Regal Lynbrook",
        "address": "321 Merrick Road",
        "latitude": 40.6573,
        "longitude": -73.6716,
        "zip": "11563"
      }
    },
    {
      "item": {
        "state": "NY",
        "city": "New York",
        "theatre_code": "1412",
        "path_name": "regal-essex-crossing-1412",
        "name": "Regal Essex Crossing",
        "address": "129 Delancey Street",
        "latitude": 40.71823,
        "longitude": -73.98812,
        "zip": "10002"
      }
    },
    {
      "item": {
        "state": "CA",
        "city": "Sacramento",
        "theatre_code": "1413",
        "path_name": "regal-delta-shores-1413",
        "name": "Regal Delta Shores",
        "address": "8136 Delta Shores Circle",
        "latitude": 38.4652,
        "longitude": -121.4939,
        "zip": "95832"
      }
    },
    {
      "item": {
        "state": "FL",
        "city": "Gainesville",
        "theatre_code": "1416",
        "path_name": "regal-celebration-pointe-rpx-1416",
        "name": "Regal Celebration Pointe",
        "address": "4901 Steve Spurrier Way",
        "latitude": 29.62404,
        "longitude": -82.39564,
        "zip": "32608"
      }
    },
    {
      "item": {
        "state": "NJ",
        "city": "Hamilton",
        "theatre_code": "1417",
        "path_name": "regal-independence-plaza-1417",
        "name": "Regal Independence Plaza",
        "address": "2465 South Broad Street",
        "latitude": 40.192,
        "longitude": -74.7218,
        "zip": "08610"
      }
    },
    {
      "item": {
        "state": "CA",
        "city": "Thousand Oaks",
        "theatre_code": "1418",
        "path_name": "regal-janss-marketplace-1418",
        "name": "Regal Janss Marketplace",
        "address": "255 North Moorpark Road",
        "latitude": 34.1828,
        "longitude": -118.8792,
        "zip": "91360"
      }
    },
    {
      "item": {
        "state": "NY",
        "city": "Staten Island",
        "theatre_code": "1419",
        "path_name": "regal-bricktown-charleston-1419",
        "name": "Regal Bricktown Charleston",
        "address": "165 Bricktown Way",
        "latitude": 40.5303,
        "longitude": -74.23027,
        "zip": "10309"
      }
    },
    {
      "item": {
        "state": "GA",
        "city": "Carrollton",
        "theatre_code": "1420",
        "path_name": "regal-carrollton-1420",
        "name": "Regal Carrollton",
        "address": "1135 Bankhead Highway",
        "latitude": 33.5933,
        "longitude": -85.038,
        "zip": "30117"
      }
    },
    {
      "item": {
        "state": "GA",
        "city": "Gainesville",
        "theatre_code": "1421",
        "path_name": "regal-hollywood-cinemas-gainesville-1421",
        "name": "Regal Hollywood - Gainesville",
        "address": "120 Green Hill Circle NW",
        "latitude": 34.2952,
        "longitude": -83.8568,
        "zip": "30505"
      }
    },
    {
      "item": {
        "state": "GA",
        "city": "Dawsonville",
        "theatre_code": "1422",
        "path_name": "regal-dawson-1422",
        "name": "Regal Dawson",
        "address": "189 North 400 Center Lane",
        "latitude": 34.3689,
        "longitude": -84.0356,
        "zip": "30534"
      }
    },
    {
      "item": {
        "state": "GA",
        "city": "Woodstock",
        "theatre_code": "1423",
        "path_name": "regal-cherokee-1423",
        "name": "Regal Cherokee",
        "address": "355 Cinema View",
        "latitude": 34.1076,
        "longitude": -84.543,
        "zip": "30189"
      }
    },
    {
      "item": {
        "state": "GA",
        "city": "Griffin",
        "theatre_code": "1424",
        "path_name": "regal-griffin-1424",
        "name": "Regal Griffin",
        "address": "1367 N. Express Way",
        "latitude": 33.2694,
        "longitude": -84.2947,
        "zip": "30223"
      }
    },
    {
      "item": {
        "state": "UT",
        "city": "Taylorsville",
        "theatre_code": "1426",
        "path_name": "regal-crossroads-rpx-taylorsville-1426",
        "name": "Regal Crossroads - Taylorsville",
        "address": "5516 South Redwood Road",
        "latitude": 40.6509,
        "longitude": -111.942,
        "zip": "84123"
      }
    },
    {
      "item": {
        "state": "CA",
        "city": "Yorba Linda",
        "theatre_code": "1430",
        "path_name": "regal-yorba-linda-1430",
        "name": "Regal Yorba Linda",
        "address": "4870 Valencia Ave.",
        "latitude": 33.8904,
        "longitude": -117.81191,
        "zip": "92886"
      }
    },
    {
      "item": {
        "state": "CA",
        "city": "Fresno",
        "theatre_code": "1433",
        "path_name": "regal-marketplace-at-el-paseo-1433",
        "name": "Regal Marketplace @ El Paseo",
        "address": "6455 N. Riverside Drive",
        "latitude": 36.83414,
        "longitude": -119.91108,
        "zip": "93722"
      }
    },
    {
      "item": {
        "state": "CA",
        "city": "North Hollywood",
        "theatre_code": "1438",
        "path_name": "regal-north-hollywood-1438",
        "name": "Regal North Hollywood",
        "address": "6150 Laurel Canyon Blvd., #200",
        "latitude": 34.18134,
        "longitude": -118.39414,
        "zip": "91606"
      }
    },
    {
      "item": {
        "state": "TX",
        "city": "Tomball",
        "theatre_code": "1441",
        "path_name": "regal-lone-star-1441",
        "name": "Regal Lone Star",
        "address": "24720 Tomball Parkway",
        "latitude": 30.0415,
        "longitude": -95.6052,
        "zip": "77375"
      }
    },
    {
      "item": {
        "state": "KS",
        "city": "Wichita",
        "theatre_code": "1443",
        "path_name": "regal-warren-west-1443",
        "name": "Regal Warren West",
        "address": "9150 W 21st St.",
        "latitude": 37.7242,
        "longitude": -97.4478,
        "zip": "67212"
      }
    },
    {
      "item": {
        "state": "KS",
        "city": "Wichita",
        "theatre_code": "1444",
        "path_name": "regal-warren-east-1444",
        "name": "Regal Warren East",
        "address": "11611 E. 13th St.",
        "latitude": 37.7057,
        "longitude": -97.2026,
        "zip": "67206"
      }
    },
    {
      "item": {
        "state": "OK",
        "city": "Moore",
        "theatre_code": "1447",
        "path_name": "regal-warren-moore-1447",
        "name": "Regal Warren Moore",
        "address": "1000 Telephone Rd.",
        "latitude": 35.3289,
        "longitude": -97.4929,
        "zip": "73160"
      }
    },
    {
      "item": {
        "state": "OK",
        "city": "Broken Arrow",
        "theatre_code": "1448",
        "path_name": "regal-warren-broken-arrow-1448",
        "name": "Regal Warren Broken Arrow",
        "address": "1700 W. Aspen Creek Dr.",
        "latitude": 35.9913,
        "longitude": -95.8096,
        "zip": "74011"
      }
    },
    {
      "item": {
        "state": "TN",
        "city": "Knoxville",
        "theatre_code": "1462",
        "path_name": "regal-cinebarre-west-town-mall-1462",
        "name": "Regal Cinebarre West Town Mall",
        "address": "7600 Kingston Pike, Suite 1520",
        "latitude": 35.9236,
        "longitude": -84.0336,
        "zip": "37919"
      }
    },
    {
      "item": {
        "state": "NV",
        "city": "Las Vegas",
        "theatre_code": "1463",
        "path_name": "regal-cinebarre-palace-station-1463",
        "name": "Regal Cinebarre Palace Station",
        "address": "2411 W. Sahara Ave",
        "latitude": 36.1442,
        "longitude": -115.17414,
        "zip": "89102"
      }
    },
    {
      "item": {
        "state": "CA",
        "city": "San Francisco",
        "theatre_code": "1464",
        "path_name": "regal-stonestown-galleria-1464",
        "name": "Regal Stonestown Galleria",
        "address": "3251 20th Avenue",
        "latitude": 37.72817,
        "longitude": -122.47755,
        "zip": "94312"
      }
    },
    {
      "item": {
        "state": "NM",
        "city": "Santa Fe",
        "theatre_code": "1465",
        "path_name": "regal-santa-fe-place-1465",
        "name": "Regal Santa Fe Place",
        "address": "4250 Cerrillos Rd",
        "latitude": 35.63558,
        "longitude": -106.01381,
        "zip": "87507"
      }
    },
    {
      "item": {
        "state": "MA",
        "city": "Springfield",
        "theatre_code": "1467",
        "path_name": "regal-mgm-springfield-1467",
        "name": "Regal MGM Springfield",
        "address": "1 MGM Way",
        "latitude": 42.0989,
        "longitude": -72.5864,
        "zip": "01144"
      }
    },
    {
      "item": {
        "state": "TX",
        "city": "Spring",
        "theatre_code": "1469",
        "path_name": "regal-benders-landing-screenx-1469",
        "name": "Regal Benders Landing",
        "address": "4495 Riley Fuzzel Road",
        "latitude": 30.12143,
        "longitude": -95.37575,
        "zip": "77373"
      }
    },
    {
      "item": {
        "state": "CA",
        "city": "Oceanside",
        "theatre_code": "1470",
        "path_name": "regal-mission-marketplace-1470",
        "name": "Regal Mission Marketplace",
        "address": "431 College Boulevard",
        "latitude": 33.24514,
        "longitude": -117.29396,
        "zip": "92057"
      }
    },
    {
      "item": {
        "state": "NY",
        "city": "Flushing",
        "theatre_code": "1472",
        "path_name": "regal-tangram-4dx-1472",
        "name": "Regal Tangram",
        "address": "133-36 37th Avenue",
        "latitude": 40.76047,
        "longitude": -73.83369,
        "zip": "11354"
      }
    },
    {
      "item": {
        "state": "FL",
        "city": "Dania Beach",
        "theatre_code": "1474",
        "path_name": "regal-dania-pointe-1474",
        "name": "Regal Dania Pointe",
        "address": "128 Sunset Drive",
        "latitude": 26.0536,
        "longitude": -80.16119,
        "zip": "33004"
      }
    },
    {
      "item": {
        "state": "LA",
        "city": "Kenner",
        "theatre_code": "1480",
        "path_name": "regal-grand-esplanade-gpx-1480",
        "name": "Regal Grand Esplanade",
        "address": "1401 W. Esplanade Ave.",
        "latitude": 30.0171,
        "longitude": -90.2506,
        "zip": "70065"
      }
    },
    {
      "item": {
        "state": "OK",
        "city": "Midwest City",
        "theatre_code": "1482",
        "path_name": "regal-midwest-city-1482",
        "name": "Regal Warren Midwest City",
        "address": "5905 SE 15th Street",
        "latitude": 35.45315,
        "longitude": -97.4182,
        "zip": "73110"
      }
    },
    {
      "item": {
        "state": "CA",
        "city": "Sherman Oaks",
        "theatre_code": "1483",
        "path_name": "regal-sherman-oaks-galleria-1483",
        "name": "Regal Sherman Oaks Galleria",
        "address": "15301 Ventura Blvd. Bldg A, 3rd Floor, Suite 300",
        "latitude": 34.15644,
        "longitude": -118.46705,
        "zip": "91403"
      }
    },
    {
      "item": {
        "state": "CA",
        "city": "Los Angeles",
        "theatre_code": "1484",
        "path_name": "regal-la-live-1484",
        "name": "Regal LA Live",
        "address": "1000 W Olympic Boulevard",
        "latitude": 34.0461,
        "longitude": -118.267,
        "zip": "90015"
      }
    },
    {
      "item": {
        "state": "CA",
        "city": "Pasadena",
        "theatre_code": "1485",
        "path_name": "regal-paseo-1485",
        "name": "Regal Paseo",
        "address": "300 E Colorado Blvd.",
        "latitude": 34.14515,
        "longitude": -118.14367,
        "zip": "91101"
      }
    },
    {
      "item": {
        "state": "OH",
        "city": "Massillon",
        "theatre_code": "1512",
        "path_name": "regal-massillon-1512",
        "name": "Regal Massillon",
        "address": "175 Cherry Rd NW",
        "latitude": 40.7994,
        "longitude": -81.529,
        "zip": "44646"
      }
    },
    {
      "item": {
        "state": "PA",
        "city": "Dickson City",
        "theatre_code": "1515",
        "path_name": "regal-dickson-city-1515",
        "name": "Regal Dickson City",
        "address": "3909 Commerce Boulevard",
        "latitude": 41.4599,
        "longitude": -75.6464,
        "zip": "18519"
      }
    },
    {
      "item": {
        "state": "SC",
        "city": "Simpsonville",
        "theatre_code": "1517",
        "path_name": "regal-simpsonville-1517",
        "name": "Regal Simpsonville",
        "address": "780 South Street",
        "latitude": 34.7213,
        "longitude": -82.2551,
        "zip": "29681"
      }
    },
    {
      "item": {
        "state": "WV",
        "city": "Cross Lanes",
        "theatre_code": "1518",
        "path_name": "regal-nitro-1518",
        "name": "Regal Nitro",
        "address": "12 JW Drive",
        "latitude": 38.4221,
        "longitude": -81.8095,
        "zip": "25313"
      }
    },
    {
      "item": {
        "state": "GA",
        "city": "McDonough",
        "theatre_code": "1519",
        "path_name": "regal-mcdonough-1519",
        "name": "Regal McDonough",
        "address": "115 Foster Drive",
        "latitude": 33.4653,
        "longitude": -84.2066,
        "zip": "30253"
      }
    },
    {
      "item": {
        "state": "IN",
        "city": "Noblesville",
        "theatre_code": "1523",
        "path_name": "regal-noblesville-1523",
        "name": "Regal Noblesville",
        "address": "10075 Town & Country Blvd",
        "latitude": 40.0368,
        "longitude": -85.9952,
        "zip": "46060"
      }
    },
    {
      "item": {
        "state": "KY",
        "city": "Bowling Green",
        "theatre_code": "1525",
        "path_name": "regal-bowling-green-1525",
        "name": "Regal Bowling Green",
        "address": "323 Great Escape Drive",
        "latitude": 36.9655,
        "longitude": -86.4722,
        "zip": "42104"
      }
    },
    {
      "item": {
        "state": "KY",
        "city": "Wilder",
        "theatre_code": "1526",
        "path_name": "regal-wilder-1526",
        "name": "Regal Wilder",
        "address": "103 Crossing Drive",
        "latitude": 39.024,
        "longitude": -84.448,
        "zip": "41076"
      }
    },
    {
      "item": {
        "state": "TN",
        "city": "Clarksville",
        "theatre_code": "1534",
        "path_name": "regal-clarksville-1534",
        "name": "Regal Clarksville",
        "address": "1810 Tiny Town Road",
        "latitude": 36.6276,
        "longitude": -87.3259,
        "zip": "37042"
      }
    },
    {
      "item": {
        "state": "GA",
        "city": "Dacula",
        "theatre_code": "1535",
        "path_name": "regal-hamilton-mill-1535",
        "name": "Regal Hamilton Mill",
        "address": "2160 Hamilton Creek Parkway",
        "latitude": 34.0707,
        "longitude": -83.9081,
        "zip": "30019"
      }
    },
    {
      "item": {
        "state": "CO",
        "city": "Lakewood",
        "theatre_code": "1550",
        "path_name": "regal-ua-colorado-mills-1550",
        "name": "Regal UA Colorado Mills",
        "address": "14500 W. Colfax Ave, Suite 600",
        "latitude": 39.73,
        "longitude": -105.16,
        "zip": "80410"
      }
    },
    {
      "item": {
        "state": "DC",
        "city": "Washington",
        "theatre_code": "1551",
        "path_name": "regal-gallery-place-4dx-1551",
        "name": "Regal Gallery Place",
        "address": "701 Seventh Street Northwest",
        "latitude": 38.8976,
        "longitude": -77.0245,
        "zip": "20004"
      }
    },
    {
      "item": {
        "state": "KY",
        "city": "Bowling Green",
        "theatre_code": "1581",
        "path_name": "regal-greenwood-mall-1581",
        "name": "Regal Greenwood Mall",
        "address": "2625 Scottsville Rd.",
        "latitude": 36.9415,
        "longitude": -86.4214,
        "zip": "42104"
      }
    },
    {
      "item": {
        "state": "AZ",
        "city": "Gilbert",
        "theatre_code": "1606",
        "path_name": "regal-gilbert-1606",
        "name": "Regal Gilbert",
        "address": "1012 S. Gilbert Rd.",
        "latitude": 33.3293,
        "longitude": -111.79,
        "zip": "85296"
      }
    },
    {
      "item": {
        "state": "CA",
        "city": "Merced",
        "theatre_code": "1607",
        "path_name": "regal-hollywood-merced-1607",
        "name": "Regal Hollywood - Merced",
        "address": "403 W. Main",
        "latitude": 37.301,
        "longitude": -120.4819,
        "zip": "95340"
      }
    },
    {
      "item": {
        "state": "CO",
        "city": "Colorado Springs",
        "theatre_code": "1609",
        "path_name": "regal-interquest-rpx-1609",
        "name": "Regal Interquest",
        "address": "1120 Interquest Pkwy",
        "latitude": 38.9878,
        "longitude": -104.7924,
        "zip": "80921"
      }
    },
    {
      "item": {
        "state": "CO",
        "city": "Centennial",
        "theatre_code": "1610",
        "path_name": "regal-southglenn-1610",
        "name": "Regal SouthGlenn",
        "address": "6901 S. Vine Street",
        "latitude": 39.5938,
        "longitude": -104.9625,
        "zip": "80122"
      }
    },
    {
      "item": {
        "state": "FL",
        "city": "Port Orange",
        "theatre_code": "1613",
        "path_name": "regal-pavilion-rpx-1613",
        "name": "Regal Pavilion",
        "address": "5547 S Williamson Blvd",
        "latitude": 29.1099,
        "longitude": -81.0337,
        "zip": "32128"
      }
    },
    {
      "item": {
        "state": "HI",
        "city": "Kahului",
        "theatre_code": "1614",
        "path_name": "regal-maui-mall-megaplex-1614",
        "name": "Regal Maui Mall",
        "address": "70 E. Kaahnumanu Ave Suite A",
        "latitude": 20.8822,
        "longitude": -156.47549,
        "zip": "96784"
      }
    },
    {
      "item": {
        "state": "KS",
        "city": "Lawrence",
        "theatre_code": "1618",
        "path_name": "regal-southwind-1618",
        "name": "Regal Southwind",
        "address": "3433 Iowa Street",
        "latitude": 38.9221,
        "longitude": -95.2601,
        "zip": "66046"
      }
    },
    {
      "item": {
        "state": "KS",
        "city": "Topeka",
        "theatre_code": "1619",
        "path_name": "regal-west-ridge-1619",
        "name": "Regal West Ridge",
        "address": "1727 SW Wanamaker Rd",
        "latitude": 39.0355,
        "longitude": -95.7617,
        "zip": "66604"
      }
    },
    {
      "item": {
        "state": "MO",
        "city": "Columbia",
        "theatre_code": "1621",
        "path_name": "regal-columbia-rpx-1621",
        "name": "Regal Columbia",
        "address": "2800 Goodwin Point",
        "latitude": 38.9211,
        "longitude": -92.2989,
        "zip": "65201"
      }
    },
    {
      "item": {
        "state": "MO",
        "city": "Joplin",
        "theatre_code": "1622",
        "path_name": "regal-northstar-1622",
        "name": "Regal Northstar",
        "address": "201  N Northpark Lane",
        "latitude": 37.098,
        "longitude": -94.4684,
        "zip": "64801"
      }
    },
    {
      "item": {
        "state": "MO",
        "city": "St Joseph",
        "theatre_code": "1624",
        "path_name": "regal-hollywood-st-joseph-1624",
        "name": "Regal Hollywood - St. Joseph",
        "address": "5405 N. Belt Hwy Bldg M",
        "latitude": 39.8146,
        "longitude": -94.8148,
        "zip": "64506"
      }
    },
    {
      "item": {
        "state": "MT",
        "city": "Bozeman",
        "theatre_code": "1625",
        "path_name": "regal-gallatin-valley-1625",
        "name": "Regal Gallatin Valley",
        "address": "2825 W. Main Street",
        "latitude": 45.671,
        "longitude": -111.079,
        "zip": "59718"
      }
    },
    {
      "item": {
        "state": "OK",
        "city": "Norman",
        "theatre_code": "1628",
        "path_name": "regal-spotlight-1628",
        "name": "Regal Spotlight",
        "address": "1100 N. Interstate Dr",
        "latitude": 35.2314,
        "longitude": -97.486,
        "zip": "73072"
      }
    },
    {
      "item": {
        "state": "OK",
        "city": "Bartlesville",
        "theatre_code": "1630",
        "path_name": "regal-bartlesville-movies-1630",
        "name": "Regal Bartlesville",
        "address": "100  Washington Park Mall",
        "latitude": 36.7567,
        "longitude": -95.9353,
        "zip": "74006"
      }
    },
    {
      "item": {
        "state": "TX",
        "city": "Killeen",
        "theatre_code": "1636",
        "path_name": "regal-killeen-1636",
        "name": "Regal Killeen",
        "address": "2501 E. Central Texas Expwy",
        "latitude": 31.0896,
        "longitude": -97.7162,
        "zip": "76543"
      }
    },
    {
      "item": {
        "state": "TX",
        "city": "Beaumont",
        "theatre_code": "1639",
        "path_name": "regal-star-1639",
        "name": "Regal Star",
        "address": "4455 Dowlen Rd",
        "latitude": 30.1222,
        "longitude": -94.1575,
        "zip": "77706"
      }
    },
    {
      "item": {
        "state": "TX",
        "city": "Early",
        "theatre_code": "1643",
        "path_name": "regal-heartland-1643",
        "name": "Regal Heartland",
        "address": "300 Early Blvd",
        "latitude": 31.7343,
        "longitude": -98.9648,
        "zip": "76802"
      }
    },
    {
      "item": {
        "state": "GU",
        "city": "Tamuning",
        "theatre_code": "1645",
        "path_name": "regal-guam-megaplex-1645",
        "name": "Regal Guam",
        "address": "235 Pass St.",
        "latitude": 13.484,
        "longitude": 144.7765,
        "zip": "96911"
      }
    },
    {
      "item": {
        "state": "AS",
        "city": "Pago Pago",
        "theatre_code": "1647",
        "path_name": "regal-nuuuli-place-twin-1647",
        "name": "Regal Nu'uuli Place Twin",
        "address": "202 Pago Plaza",
        "latitude": -14.2733,
        "longitude": -170.7021,
        "zip": "96799"
      }
    },
    {
      "item": {
        "state": "HI",
        "city": "Hilo",
        "theatre_code": "1652",
        "path_name": "regal-prince-kuhio-1652",
        "name": "Regal Prince Kuhio",
        "address": "111 East Puainako Street",
        "latitude": 19.6983,
        "longitude": -155.0649,
        "zip": "96720"
      }
    },
    {
      "item": {
        "state": "MO",
        "city": "Rolla",
        "theatre_code": "1653",
        "path_name": "regal-forum-1653",
        "name": "Regal Forum",
        "address": "1101 E. 18th Street",
        "latitude": 37.958,
        "longitude": -91.7594,
        "zip": "65401"
      }
    },
    {
      "item": {
        "state": "WY",
        "city": "Laramie",
        "theatre_code": "1655",
        "path_name": "regal-fox-theater-1655",
        "name": "Regal Fox Theater",
        "address": "505 S 20th St",
        "latitude": 41.3107,
        "longitude": -105.5904,
        "zip": "82070"
      }
    },
    {
      "item": {
        "state": "WA",
        "city": "Bellingham",
        "theatre_code": "1671",
        "path_name": "regal-barkley-village-1671",
        "name": "Regal Barkley Village",
        "address": "3005 Cinema Place",
        "latitude": 48.7712,
        "longitude": -122.4465,
        "zip": "98226"
      }
    },
    {
      "item": {
        "state": "VA",
        "city": "Sterling",
        "theatre_code": "1672",
        "path_name": "regal-dulles-town-center-1672",
        "name": "Regal Dulles Town Center",
        "address": "21100 Dulles Town Cir, Ste 203",
        "latitude": 39.0319,
        "longitude": -77.4235,
        "zip": "20166"
      }
    },
    {
      "item": {
        "state": "CO",
        "city": "Longmont",
        "theatre_code": "1673",
        "path_name": "regal-village-at-the-peaks-rpx-1673",
        "name": "Regal Village At The Peaks",
        "address": "1230 S Hover Road",
        "latitude": 40.1476,
        "longitude": -105.127,
        "zip": "80501"
      }
    },
    {
      "item": {
        "state": "VA",
        "city": "Gainesville",
        "theatre_code": "1675",
        "path_name": "regal-virginia-gateway-1675",
        "name": "Regal Virginia Gateway",
        "address": "8001 Gateway Promenade Place",
        "latitude": 38.7891,
        "longitude": -77.6068,
        "zip": "20155"
      }
    },
    {
      "item": {
        "state": "CA",
        "city": "Santa Maria",
        "theatre_code": "1681",
        "path_name": "regal-edwards-santa-maria-rpx-1681",
        "name": "Regal Edwards Santa Maria & RPX",
        "address": "100 Town Center East",
        "latitude": 34.9512,
        "longitude": -120.4343,
        "zip": "93548"
      }
    },
    {
      "item": {
        "state": "GA",
        "city": "Alpharetta",
        "theatre_code": "1694",
        "path_name": "regal-avalon-1694",
        "name": "Regal Avalon",
        "address": "3950 1st Street",
        "latitude": 34.0718,
        "longitude": -84.2765,
        "zip": "30009"
      }
    },
    {
      "item": {
        "state": "CT",
        "city": "Waterford",
        "theatre_code": "1703",
        "path_name": "regal-waterford-1703",
        "name": "Regal Waterford",
        "address": "123 Cross Rd",
        "latitude": 41.3677,
        "longitude": -72.1659,
        "zip": "06385"
      }
    },
    {
      "item": {
        "state": "ME",
        "city": "Augusta",
        "theatre_code": "1704",
        "path_name": "regal-augusta-1704",
        "name": "Regal Augusta",
        "address": "23 Market Place Dr",
        "latitude": 44.3419,
        "longitude": -69.7907,
        "zip": "04330"
      }
    },
    {
      "item": {
        "state": "MD",
        "city": "Hunt Valley",
        "theatre_code": "1711",
        "path_name": "regal-hunt-valley-1711",
        "name": "Regal Hunt Valley",
        "address": "11511 McCormick Rd",
        "latitude": 39.4994,
        "longitude": -76.6562,
        "zip": "21030"
      }
    },
    {
      "item": {
        "state": "MA",
        "city": "Bellingham",
        "theatre_code": "1713",
        "path_name": "regal-bellingham-1713",
        "name": "Regal Bellingham",
        "address": "259 Hartford Ave",
        "latitude": 42.1143,
        "longitude": -71.4733,
        "zip": "02019"
      }
    },
    {
      "item": {
        "state": "MA",
        "city": "Kingston",
        "theatre_code": "1717",
        "path_name": "regal-independence-mall-rpx-1717",
        "name": "Regal Independence Mall",
        "address": "101 Kingston Collection Way",
        "latitude": 41.9716,
        "longitude": -70.7175,
        "zip": "02364"
      }
    },
    {
      "item": {
        "state": "MA",
        "city": "Mashpee",
        "theatre_code": "1718",
        "path_name": "regal-mashpee-commons-1718",
        "name": "Regal Mashpee Commons",
        "address": "15 Steeple Street",
        "latitude": 41.6185,
        "longitude": -70.4877,
        "zip": "02649"
      }
    },
    {
      "item": {
        "state": "MA",
        "city": "Marlborough",
        "theatre_code": "1721",
        "path_name": "regal-solomon-pond-1721",
        "name": "Regal Solomon Pond",
        "address": "591 Donald J Lynch Blvd",
        "latitude": 42.353,
        "longitude": -71.6145,
        "zip": "01752"
      }
    },
    {
      "item": {
        "state": "NH",
        "city": "Newington",
        "theatre_code": "1728",
        "path_name": "regal-fox-run-rpx-1728",
        "name": "Regal Fox Run",
        "address": "45 Gosling Road",
        "latitude": 43.0913,
        "longitude": -70.8008,
        "zip": "03801"
      }
    },
    {
      "item": {
        "state": "NJ",
        "city": "Mays Landing",
        "theatre_code": "1729",
        "path_name": "regal-hamilton-commons-1729",
        "name": "Regal Hamilton Commons",
        "address": "4215 Black Horse Pike, Lot 600",
        "latitude": 39.451,
        "longitude": -74.643,
        "zip": "08234"
      }
    },
    {
      "item": {
        "state": "NY",
        "city": "Horseheads",
        "theatre_code": "1730",
        "path_name": "regal-arnot-mall-1730",
        "name": "Regal Arnot Mall",
        "address": "3300 Chambers Rd",
        "latitude": 42.1542,
        "longitude": -76.8758,
        "zip": "14845"
      }
    },
    {
      "item": {
        "state": "NY",
        "city": "Queensbury",
        "theatre_code": "1731",
        "path_name": "regal-aviation-mall-1731",
        "name": "Regal Aviation Mall",
        "address": "578 Aviation Rd",
        "latitude": 43.3281,
        "longitude": -73.6802,
        "zip": "12804"
      }
    },
    {
      "item": {
        "state": "NY",
        "city": "Binghamton",
        "theatre_code": "1732",
        "path_name": "regal-binghamton-1732",
        "name": "Regal Binghamton",
        "address": "900 Front St",
        "latitude": 42.1339,
        "longitude": -75.9055,
        "zip": "13905"
      }
    },
    {
      "item": {
        "state": "NY",
        "city": "Syracuse",
        "theatre_code": "1733",
        "path_name": "regal-destiny-usa-1733",
        "name": "Regal Destiny USA",
        "address": "9586 Destiny USA Drive",
        "latitude": 43.0683,
        "longitude": -76.1707,
        "zip": "13290"
      }
    },
    {
      "item": {
        "state": "NY",
        "city": "Plattsburgh",
        "theatre_code": "1734",
        "path_name": "regal-champlain-centre-1734",
        "name": "Regal Champlain Centre",
        "address": "60 Smithfield Blvd, Suite 90",
        "latitude": 44.7023,
        "longitude": -73.4951,
        "zip": "12901"
      }
    },
    {
      "item": {
        "state": "NY",
        "city": "Albany",
        "theatre_code": "1737",
        "path_name": "regal-crossgates-1737",
        "name": "Regal Crossgates",
        "address": "120 B Washington Avenue Ext",
        "latitude": 42.6891,
        "longitude": -73.853,
        "zip": "12260"
      }
    },
    {
      "item": {
        "state": "NY",
        "city": "Rensselaer",
        "theatre_code": "1738",
        "path_name": "regal-east-greenbush-1738",
        "name": "Regal East Greenbush",
        "address": "279 Troy Rd",
        "latitude": 42.6335,
        "longitude": -73.7018,
        "zip": "12144"
      }
    },
    {
      "item": {
        "state": "NY",
        "city": "Poughkeepsie",
        "theatre_code": "1740",
        "path_name": "regal-galleria-mall-1740",
        "name": "Regal Galleria Mall",
        "address": "2001 South Road",
        "latitude": 41.6268,
        "longitude": -73.9194,
        "zip": "12601"
      }
    },
    {
      "item": {
        "state": "PA",
        "city": "Harrisburg",
        "theatre_code": "1748",
        "path_name": "regal-harrisburg-1748",
        "name": "Regal Harrisburg",
        "address": "1500 Caughey Dr",
        "latitude": 40.31,
        "longitude": -76.8366,
        "zip": "17140"
      }
    },
    {
      "item": {
        "state": "PA",
        "city": "Hazleton",
        "theatre_code": "1749",
        "path_name": "regal-hazleton-1749",
        "name": "Regal Hazleton",
        "address": "400 Laurel Mall",
        "latitude": 40.982,
        "longitude": -76.0257,
        "zip": "18202"
      }
    },
    {
      "item": {
        "state": "NJ",
        "city": "Manahawkin",
        "theatre_code": "1754",
        "path_name": "regal-manahawkin-1754",
        "name": "Regal Manahawkin",
        "address": "733 Route 72 East",
        "latitude": 39.7111,
        "longitude": -74.2789,
        "zip": "08005"
      }
    },
    {
      "item": {
        "state": "FL",
        "city": "Plantation",
        "theatre_code": "1762",
        "path_name": "regal-broward-rpx-1762",
        "name": "Regal Broward",
        "address": "8000 West Broward Blvd. #1840",
        "latitude": 26.1162,
        "longitude": -80.2539,
        "zip": "33388"
      }
    },
    {
      "item": {
        "state": "NY",
        "city": "Clifton Park",
        "theatre_code": "1769",
        "path_name": "regal-clifton-park-rpx-1769",
        "name": "Regal Clifton Park",
        "address": "22 Clifton Country Road",
        "latitude": 42.8605,
        "longitude": -73.781,
        "zip": "12065"
      }
    },
    {
      "item": {
        "state": "CA",
        "city": "Carlsbad",
        "theatre_code": "1778",
        "path_name": "regal-carlsbad-1778",
        "name": "Regal Carlsbad",
        "address": "2501 El Camino Real",
        "latitude": 33.1786,
        "longitude": -117.329,
        "zip": "92008"
      }
    },
    {
      "item": {
        "state": "IL",
        "city": "Bolingbrook",
        "theatre_code": "1787",
        "path_name": "regal-bolingbrook-1787",
        "name": "Regal Bolingbrook",
        "address": "1221 W. Boughton Road",
        "latitude": 41.7034,
        "longitude": -88.1208,
        "zip": "60440"
      }
    },
    {
      "item": {
        "state": "IL",
        "city": "Chicago",
        "theatre_code": "1789",
        "path_name": "regal-city-north-1789",
        "name": "Regal City North",
        "address": "2600 N. Western Avenue",
        "latitude": 41.9287,
        "longitude": -87.688,
        "zip": "60647"
      }
    },
    {
      "item": {
        "state": "IL",
        "city": "Chicago",
        "theatre_code": "1793",
        "path_name": "regal-webster-place-1793",
        "name": "Regal Webster Place",
        "address": "1471 W. Webster Avenue",
        "latitude": 41.9215,
        "longitude": -87.6656,
        "zip": "60614"
      }
    },
    {
      "item": {
        "state": "IN",
        "city": "Greenwood",
        "theatre_code": "1794",
        "path_name": "regal-greenwood-1794",
        "name": "Regal Greenwood",
        "address": "461 Greenwood Park South Drive",
        "latitude": 39.6311,
        "longitude": -86.1066,
        "zip": "46142"
      }
    },
    {
      "item": {
        "state": "CA",
        "city": "San Bernardino",
        "theatre_code": "1799",
        "path_name": "regal-san-bernardino-1799",
        "name": "Regal San Bernardino",
        "address": "450 N. E Street",
        "latitude": 34.1083,
        "longitude": -117.2942,
        "zip": "92401"
      }
    },
    {
      "item": {
        "state": "CA",
        "city": "Rancho Mirage",
        "theatre_code": "1801",
        "path_name": "regal-rancho-mirage-1801",
        "name": "Regal Rancho Mirage",
        "address": "72-777 Dinah Shore Drive",
        "latitude": 33.7998,
        "longitude": -116.3927,
        "zip": "92270"
      }
    },
    {
      "item": {
        "state": "CA",
        "city": "San Jacinto",
        "theatre_code": "1804",
        "path_name": "regal-san-jacinto-metro-1804",
        "name": "Regal San Jacinto Metro",
        "address": "1599 San Jacinto Ave",
        "latitude": 33.7723,
        "longitude": -116.9566,
        "zip": "92583"
      }
    },
    {
      "item": {
        "state": "CA",
        "city": "Escondido",
        "theatre_code": "1805",
        "path_name": "regal-escondido-1805",
        "name": "Regal Escondido",
        "address": "350 W Valley Parkway",
        "latitude": 33.121,
        "longitude": -117.086,
        "zip": "92025"
      }
    },
    {
      "item": {
        "state": "CA",
        "city": "Riverside",
        "theatre_code": "1806",
        "path_name": "regal-riverside-plaza-1806",
        "name": "Regal Riverside Plaza",
        "address": "3535 Riverside Plaza Drive",
        "latitude": 33.955,
        "longitude": -117.3877,
        "zip": "92506"
      }
    },
    {
      "item": {
        "state": "CA",
        "city": "El Dorado Hills",
        "theatre_code": "1807",
        "path_name": "regal-el-dorado-hills-1807",
        "name": "Regal El Dorado Hills",
        "address": "2101 Vine Street",
        "latitude": 38.652,
        "longitude": -121.0621,
        "zip": "95762"
      }
    },
    {
      "item": {
        "state": "CA",
        "city": "Oakland",
        "theatre_code": "1808",
        "path_name": "regal-jack-london-1808",
        "name": "Regal Jack London",
        "address": "100 Washington Street",
        "latitude": 37.7963,
        "longitude": -122.2773,
        "zip": "94607"
      }
    },
    {
      "item": {
        "state": "CA",
        "city": "Arroyo Grande",
        "theatre_code": "1812",
        "path_name": "regal-arroyo-grande-1812",
        "name": "Regal Arroyo Grande",
        "address": "1160 W Branch Street",
        "latitude": 35.1284,
        "longitude": -120.5989,
        "zip": "93420"
      }
    },
    {
      "item": {
        "state": "CA",
        "city": "Ukiah",
        "theatre_code": "1813",
        "path_name": "regal-ukiah-1813",
        "name": "Regal Ukiah",
        "address": "612 S State Street",
        "latitude": 39.1466,
        "longitude": -123.2056,
        "zip": "95482"
      }
    },
    {
      "item": {
        "state": "CA",
        "city": "Davis",
        "theatre_code": "1814",
        "path_name": "regal-davis-holiday-1814",
        "name": "Regal Davis Holiday",
        "address": "101 F Street",
        "latitude": 38.5424,
        "longitude": -121.74,
        "zip": "95616"
      }
    },
    {
      "item": {
        "state": "CA",
        "city": "Stockton",
        "theatre_code": "1816",
        "path_name": "regal-stockton-holiday-cinema-1816",
        "name": "Regal Stockton Holiday",
        "address": "6262 N West Lane",
        "latitude": 38.0121,
        "longitude": -121.2937,
        "zip": "95210"
      }
    },
    {
      "item": {
        "state": "CA",
        "city": "Stockton",
        "theatre_code": "1817",
        "path_name": "regal-stockton-city-center-1817",
        "name": "Regal Stockton City Center",
        "address": "222 N El Dorado Street",
        "latitude": 37.955,
        "longitude": -121.2897,
        "zip": "95202"
      }
    },
    {
      "item": {
        "state": "CA",
        "city": "Modesto",
        "theatre_code": "1818",
        "path_name": "regal-modesto-1818",
        "name": "Regal Modesto",
        "address": "3969 McHenry Blvd",
        "latitude": 37.6959,
        "longitude": -120.9958,
        "zip": "95350"
      }
    },
    {
      "item": {
        "state": "CA",
        "city": "Turlock",
        "theatre_code": "1819",
        "path_name": "regal-turlock-1819",
        "name": "Regal Turlock",
        "address": "2323 W Main",
        "latitude": 37.4941,
        "longitude": -120.8751,
        "zip": "95380"
      }
    },
    {
      "item": {
        "state": "CA",
        "city": "Fresno",
        "theatre_code": "1820",
        "path_name": "regal-manchester-fresno-1820",
        "name": "Regal Manchester - Fresno",
        "address": "2055 E Shields Avenue",
        "latitude": 36.7819,
        "longitude": -119.786,
        "zip": "93726"
      }
    },
    {
      "item": {
        "state": "CA",
        "city": "Visalia",
        "theatre_code": "1821",
        "path_name": "regal-visalia-1821",
        "name": "Regal Visalia",
        "address": "120 S Bridge Street",
        "latitude": 36.3302,
        "longitude": -119.288,
        "zip": "93279"
      }
    },
    {
      "item": {
        "state": "CA",
        "city": "Auburn",
        "theatre_code": "1823",
        "path_name": "regal-auburn-california-1823",
        "name": "Regal Auburn - California",
        "address": "500 Nevada Street",
        "latitude": 38.9134,
        "longitude": -121.079,
        "zip": "95603"
      }
    },
    {
      "item": {
        "state": "CA",
        "city": "Sonora",
        "theatre_code": "1826",
        "path_name": "regal-sonora-1826",
        "name": "Regal Sonora",
        "address": "901 Sanguinetti Road",
        "latitude": 37.9736,
        "longitude": -120.3705,
        "zip": "95370"
      }
    },
    {
      "item": {
        "state": "HI",
        "city": "Pearl City",
        "theatre_code": "1827",
        "path_name": "regal-pearl-highlands-1827",
        "name": "Regal Pearl Highlands",
        "address": "1000 Kamehameha Hwy #231",
        "latitude": 21.398,
        "longitude": -157.97591,
        "zip": "96782"
      }
    },
    {
      "item": {
        "state": "HI",
        "city": "Honolulu",
        "theatre_code": "1828",
        "path_name": "regal-dole-cannery-1828",
        "name": "Regal Dole Cannery",
        "address": "735 B Iwilei Road",
        "latitude": 21.3191,
        "longitude": -157.8719,
        "zip": "96817"
      }
    },
    {
      "item": {
        "state": "HI",
        "city": "Kaneohe",
        "theatre_code": "1829",
        "path_name": "regal-windward-1829",
        "name": "Regal Windward",
        "address": "46-056 Kamehameha Hwy SPC N6",
        "latitude": 21.4244,
        "longitude": -157.8064,
        "zip": "96744"
      }
    },
    {
      "item": {
        "state": "HI",
        "city": "Keauhou-Kona",
        "theatre_code": "1830",
        "path_name": "regal-keauhou-1830",
        "name": "Regal Keauhou",
        "address": "78-6831 Ali'l Drive Suite 342",
        "latitude": 19.5767,
        "longitude": -155.9687,
        "zip": "96725"
      }
    },
    {
      "item": {
        "state": "NC",
        "city": "Huntersville",
        "theatre_code": "1842",
        "path_name": "regal-birkdale-rpx-1842",
        "name": "Regal Birkdale",
        "address": "16950 Birkdale Commons Pkwy",
        "latitude": 35.4466,
        "longitude": -80.8776,
        "zip": "28078"
      }
    },
    {
      "item": {
        "state": "NC",
        "city": "Raleigh",
        "theatre_code": "1843",
        "path_name": "regal-brier-creek-1843",
        "name": "Regal Brier Creek",
        "address": "8611 Brier Creek Parkway",
        "latitude": 35.9041,
        "longitude": -78.7837,
        "zip": "27617"
      }
    },
    {
      "item": {
        "state": "NC",
        "city": "Gastonia",
        "theatre_code": "1845",
        "path_name": "regal-franklin-square-1845",
        "name": "Regal Franklin Square",
        "address": "3778 East Franklin Blvd",
        "latitude": 35.2601,
        "longitude": -81.1103,
        "zip": "28054"
      }
    },
    {
      "item": {
        "state": "NC",
        "city": "Raleigh",
        "theatre_code": "1846",
        "path_name": "regal-north-hills-1846",
        "name": "Regal North Hills",
        "address": "4150 Main at North Hills St",
        "latitude": 35.834,
        "longitude": -78.638,
        "zip": "27609"
      }
    },
    {
      "item": {
        "state": "NC",
        "city": "Charlotte",
        "theatre_code": "1848",
        "path_name": "regal-starlight-charlotte-1848",
        "name": "Regal Starlight - Charlotte",
        "address": "11240 US Hwy 29",
        "latitude": 35.3338,
        "longitude": -80.7176,
        "zip": "28262"
      }
    },
    {
      "item": {
        "state": "SC",
        "city": "Summerville",
        "theatre_code": "1850",
        "path_name": "regal-azalea-square-rpx-1850",
        "name": "Regal Azalea Square",
        "address": "215 Azalea Square Blvd",
        "latitude": 33.0374,
        "longitude": -80.1608,
        "zip": "28493"
      }
    },
    {
      "item": {
        "state": "SC",
        "city": "Anderson",
        "theatre_code": "1853",
        "path_name": "regal-starlight-anderson-1853",
        "name": "Regal Starlight - Anderson",
        "address": "141 Interstate Boulevard",
        "latitude": 34.5757,
        "longitude": -82.7083,
        "zip": "29621"
      }
    },
    {
      "item": {
        "state": "SC",
        "city": "Florence",
        "theatre_code": "1854",
        "path_name": "regal-swamp-fox-1854",
        "name": "Regal Swamp Fox",
        "address": "3400 Radio Road",
        "latitude": 34.1923,
        "longitude": -79.8317,
        "zip": "29501"
      }
    },
    {
      "item": {
        "state": "SC",
        "city": "Columbia",
        "theatre_code": "1855",
        "path_name": "regal-sandhill-1855",
        "name": "Regal Sandhill",
        "address": "450 Town Center Place",
        "latitude": 34.1118,
        "longitude": -80.8577,
        "zip": "29229"
      }
    },
    {
      "item": {
        "state": "FL",
        "city": "Panama City",
        "theatre_code": "1859",
        "path_name": "regal-regency-panama-city-1859",
        "name": "Regal Regency Panama City",
        "address": "1515 W. 23rd St.",
        "latitude": 30.1894,
        "longitude": -85.6848,
        "zip": "32405"
      }
    },
    {
      "item": {
        "state": "FL",
        "city": "Gainesville",
        "theatre_code": "1860",
        "path_name": "regal-royal-park-1860",
        "name": "Regal Royal Park",
        "address": "3702 W. Newberry Road",
        "latitude": 29.6539,
        "longitude": -82.3801,
        "zip": "32669"
      }
    },
    {
      "item": {
        "state": "MD",
        "city": "Silver Spring",
        "theatre_code": "1862",
        "path_name": "regal-majestic-1862",
        "name": "Regal Majestic",
        "address": "900 Ellsworth Drive",
        "latitude": 38.999,
        "longitude": -77.0265,
        "zip": "20910"
      }
    },
    {
      "item": {
        "state": "MD",
        "city": "Hyattsville",
        "theatre_code": "1863",
        "path_name": "regal-hyattsville-royale-1863",
        "name": "Regal Hyattsville Royale",
        "address": "6505 America Boulevard",
        "latitude": 38.9679,
        "longitude": -76.9597,
        "zip": "20782"
      }
    },
    {
      "item": {
        "state": "VA",
        "city": "Midlothian",
        "theatre_code": "1864",
        "path_name": "regal-commonwealth-1864",
        "name": "Regal Commonwealth",
        "address": "5001 Commonwealth Centre Pkwy",
        "latitude": 37.4179,
        "longitude": -77.6303,
        "zip": "23112"
      }
    },
    {
      "item": {
        "state": "VA",
        "city": "Alexandria",
        "theatre_code": "1865",
        "path_name": "regal-kingstowne-rpx-1865",
        "name": "Regal Kingstowne",
        "address": "5910 Kingstowne Towne Center",
        "latitude": 38.7694,
        "longitude": -77.1428,
        "zip": "22315"
      }
    },
    {
      "item": {
        "state": "VA",
        "city": "Suffolk",
        "theatre_code": "1866",
        "path_name": "regal-harbour-view-grande-1866",
        "name": "Regal Harbour View Grande",
        "address": "5860 Harbour View Boulevard",
        "latitude": 36.8644,
        "longitude": -76.4469,
        "zip": "23435"
      }
    },
    {
      "item": {
        "state": "VA",
        "city": "Roanoke",
        "theatre_code": "1867",
        "path_name": "regal-valley-view-grande-1867",
        "name": "Regal Valley View Grande",
        "address": "4730 Valley View Boulevard",
        "latitude": 37.3087,
        "longitude": -79.9627,
        "zip": "24012"
      }
    },
    {
      "item": {
        "state": "VA",
        "city": "Williamsburg",
        "theatre_code": "1868",
        "path_name": "regal-new-town-1868",
        "name": "Regal New Town",
        "address": "4911 Courthouse Street",
        "latitude": 37.276,
        "longitude": -76.739,
        "zip": "23188"
      }
    },
    {
      "item": {
        "state": "VA",
        "city": "Ashburn",
        "theatre_code": "1869",
        "path_name": "regal-fox-1869",
        "name": "Regal Fox",
        "address": "22875 Brambleton Plaza",
        "latitude": 38.9872,
        "longitude": -77.5293,
        "zip": "20148"
      }
    },
    {
      "item": {
        "state": "NC",
        "city": "High Point",
        "theatre_code": "1870",
        "path_name": "regal-palladium-1870",
        "name": "Regal Palladium",
        "address": "5830 Samet Drive",
        "latitude": 36.03,
        "longitude": -79.96,
        "zip": "27265"
      }
    },
    {
      "item": {
        "state": "NC",
        "city": "Wilmington",
        "theatre_code": "1873",
        "path_name": "regal-mayfaire-1873",
        "name": "Regal Mayfaire",
        "address": "900 Town Center Drive",
        "latitude": 34.228,
        "longitude": -77.83,
        "zip": "28405"
      }
    },
    {
      "item": {
        "state": "NC",
        "city": "Cary",
        "theatre_code": "1874",
        "path_name": "regal-crossroads-cary-1874",
        "name": "Regal Crossroads - Cary",
        "address": "501 Caitboo Avenue",
        "latitude": 35.76,
        "longitude": -78.7355,
        "zip": "27518"
      }
    },
    {
      "item": {
        "state": "NC",
        "city": "Greensboro",
        "theatre_code": "1875",
        "path_name": "regal-greensboro-grande-rpx-1875",
        "name": "Regal Greensboro Grande",
        "address": "3205 Northline Avenue",
        "latitude": 36.0884,
        "longitude": -79.8371,
        "zip": "27408"
      }
    },
    {
      "item": {
        "state": "NC",
        "city": "Garner",
        "theatre_code": "1876",
        "path_name": "regal-white-oak-1876",
        "name": "Regal White Oak",
        "address": "1205 Timber Drive East",
        "latitude": 35.6891,
        "longitude": -78.5757,
        "zip": "27529"
      }
    },
    {
      "item": {
        "state": "SC",
        "city": "Mount Pleasant",
        "theatre_code": "1884",
        "path_name": "regal-palmetto-grande-1884",
        "name": "Regal Palmetto Grande",
        "address": "1319 Theatre Drive",
        "latitude": 32.8245,
        "longitude": -79.8388,
        "zip": "29464"
      }
    },
    {
      "item": {
        "state": "SC",
        "city": "Greenville",
        "theatre_code": "1885",
        "path_name": "regal-cherrydale-1885",
        "name": "Regal Cherrydale",
        "address": "3221 N. Pleasantburg Drive",
        "latitude": 34.8899,
        "longitude": -82.4007,
        "zip": "29609"
      }
    },
    {
      "item": {
        "state": "SC",
        "city": "Rock Hill",
        "theatre_code": "1886",
        "path_name": "regal-manchester-rock-hill-1886",
        "name": "Regal Manchester - Rock Hill",
        "address": "1935 Cinema Drive",
        "latitude": 34.945,
        "longitude": -80.981,
        "zip": "29730"
      }
    },
    {
      "item": {
        "state": "SC",
        "city": "Columbia",
        "theatre_code": "1887",
        "path_name": "regal-columbiana-grande-1887",
        "name": "Regal Columbiana Grande",
        "address": "1250 Bower Parkway",
        "latitude": 34.0709,
        "longitude": -81.1507,
        "zip": "29212"
      }
    },
    {
      "item": {
        "state": "SC",
        "city": "Spartanburg",
        "theatre_code": "1888",
        "path_name": "regal-spartan-1888",
        "name": "Regal Spartan",
        "address": "855 Spartan Boulevard",
        "latitude": 34.9545,
        "longitude": -82,
        "zip": "29301"
      }
    },
    {
      "item": {
        "state": "SC",
        "city": "Lexington",
        "theatre_code": "1889",
        "path_name": "regal-northlake-village-1889",
        "name": "Regal Northlake Village",
        "address": "929 North Lake Drive",
        "latitude": 33.9933,
        "longitude": -81.2313,
        "zip": "29072"
      }
    },
    {
      "item": {
        "state": "TN",
        "city": "Mt Juliet",
        "theatre_code": "1890",
        "path_name": "regal-providence-1890",
        "name": "Regal Providence",
        "address": "401 S. Mt Juliet Rd, Suite 490",
        "latitude": 36.1652,
        "longitude": -86.5075,
        "zip": "37122"
      }
    },
    {
      "item": {
        "state": "GA",
        "city": "Newnan",
        "theatre_code": "1891",
        "path_name": "regal-georgian-1891",
        "name": "Regal Georgian",
        "address": "232 Newnan Crossing Bypass",
        "latitude": 33.392,
        "longitude": -84.761,
        "zip": "30265"
      }
    },
    {
      "item": {
        "state": "NC",
        "city": "Asheville",
        "theatre_code": "1892",
        "path_name": "regal-biltmore-grande-rpx-1892",
        "name": "Regal Biltmore Grande",
        "address": "292 Thetford Street",
        "latitude": 35.4838,
        "longitude": -82.5565,
        "zip": "28803"
      }
    },
    {
      "item": {
        "state": "OH",
        "city": "Mason",
        "theatre_code": "1901",
        "path_name": "regal-deerfield-town-center-rpx-1901",
        "name": "Regal Deerfield Town Center",
        "address": "5500 Deerfield Blvd",
        "latitude": 39.3079,
        "longitude": -84.3166,
        "zip": "45040"
      }
    },
    {
      "item": {
        "state": "VA",
        "city": "Colonial Heights",
        "theatre_code": "1902",
        "path_name": "regal-southpark-mall-1902",
        "name": "Regal Southpark Mall",
        "address": "300 Southpark Circle",
        "latitude": 37.2544,
        "longitude": -77.3931,
        "zip": "23834"
      }
    },
    {
      "item": {
        "state": "MD",
        "city": "Hagerstown",
        "theatre_code": "1908",
        "path_name": "regal-valley-mall-screenx-1908",
        "name": "Regal Valley Mall",
        "address": "17301 Valley Mall Road",
        "latitude": 39.6236,
        "longitude": -77.7692,
        "zip": "21740"
      }
    },
    {
      "item": {
        "state": "MD",
        "city": "Frederick",
        "theatre_code": "1910",
        "path_name": "regal-westview-1910",
        "name": "Regal Westview",
        "address": "5243 Buckeystown Pike",
        "latitude": 39.3741,
        "longitude": -77.413,
        "zip": "21704"
      }
    },
    {
      "item": {
        "state": "VA",
        "city": "Culpeper",
        "theatre_code": "1913",
        "path_name": "regal-culpeper-1913",
        "name": "Regal Culpeper",
        "address": "210 S Main Street",
        "latitude": 38.4727,
        "longitude": -77.9964,
        "zip": "22701"
      }
    },
    {
      "item": {
        "state": "FL",
        "city": "Pinellas Park",
        "theatre_code": "1914",
        "path_name": "regal-park-place-rpx-1914",
        "name": "Regal Park Place",
        "address": "7200 US Highway 19 North",
        "latitude": 27.837,
        "longitude": -82.682,
        "zip": "33781"
      }
    },
    {
      "item": {
        "state": "CA",
        "city": "Eastvale",
        "theatre_code": "1916",
        "path_name": "regal-edwards-eastvale-gateway-1916",
        "name": "Regal Edwards Eastvale Gateway",
        "address": "12285 Limonite Avenue",
        "latitude": 33.977,
        "longitude": -117.5539,
        "zip": "91752"
      }
    },
    {
      "item": {
        "state": "NJ",
        "city": "Moorestown",
        "theatre_code": "1917",
        "path_name": "regal-moorestown-mall-rpx-1917",
        "name": "Regal Moorestown Mall",
        "address": "400 Route 38",
        "latitude": 39.9442,
        "longitude": -74.9682,
        "zip": "08057"
      }
    },
    {
      "item": {
        "state": "NY",
        "city": "Albany",
        "theatre_code": "1923",
        "path_name": "regal-colonie-center-rpx-1923",
        "name": "Regal Colonie Center",
        "address": "131 Colonie Center",
        "latitude": 42.7117,
        "longitude": -73.8183,
        "zip": "12205"
      }
    },
    {
      "item": {
        "state": "TN",
        "city": "Hendersonville",
        "theatre_code": "1926",
        "path_name": "regal-streets-of-indian-lake-1926",
        "name": "Regal Streets of Indian Lake",
        "address": "300 Indian Lake Blvd, Blding T",
        "latitude": 36.3297,
        "longitude": -86.5905,
        "zip": "37075"
      }
    },
    {
      "item": {
        "state": "NY",
        "city": "New York",
        "theatre_code": "1929",
        "path_name": "regal-times-square-1929",
        "name": "Regal Times Square",
        "address": "247 W. 42nd St.",
        "latitude": 40.7565,
        "longitude": -73.9883,
        "zip": "10036"
      }
    },
    {
      "item": {
        "state": "WA",
        "city": "Seattle",
        "theatre_code": "1931",
        "path_name": "regal-meridian-4dx-1931",
        "name": "Regal Meridian",
        "address": "1501 7th Ave.",
        "latitude": 47.6121,
        "longitude": -122.332,
        "zip": "98101"
      }
    },
    {
      "item": {
        "state": "NV",
        "city": "North Las Vegas",
        "theatre_code": "1933",
        "path_name": "regal-aliante-1933",
        "name": "Regal Aliante",
        "address": "7300 Aliante Parkway",
        "latitude": 36.2921,
        "longitude": -115.1783,
        "zip": "89084"
      }
    },
    {
      "item": {
        "state": "WA",
        "city": "Renton",
        "theatre_code": "1935",
        "path_name": "regal-the-landing-1935",
        "name": "Regal The Landing",
        "address": "900 N 10th Place",
        "latitude": 47.4982,
        "longitude": -122.2042,
        "zip": "98057"
      }
    },
    {
      "item": {
        "state": "VA",
        "city": "Midlothian",
        "theatre_code": "1936",
        "path_name": "regal-westchester-commons-1936",
        "name": "Regal Westchester Commons",
        "address": "361 Perimeter Drive",
        "latitude": 37.5117,
        "longitude": -77.697,
        "zip": "23114"
      }
    },
    {
      "item": {
        "state": "WA",
        "city": "Seattle",
        "theatre_code": "1937",
        "path_name": "regal-thornton-place-1937",
        "name": "Regal Thornton Place",
        "address": "316 NE Thornton Place",
        "latitude": 47.7031,
        "longitude": -122.3256,
        "zip": "98125"
      }
    },
    {
      "item": {
        "state": "FL",
        "city": "Orlando",
        "theatre_code": "1938",
        "path_name": "regal-pointe-orlando-1938",
        "name": "Regal Pointe Orlando",
        "address": "9101 International Dr, St 2100",
        "latitude": 28.4313,
        "longitude": -81.4717,
        "zip": "32819"
      }
    },
    {
      "item": {
        "state": "WA",
        "city": "Issaquah",
        "theatre_code": "1942",
        "path_name": "regal-issaquah-highlands-1942",
        "name": "Regal Issaquah Highlands",
        "address": "940 NE Park Drive",
        "latitude": 47.5559,
        "longitude": -122.0015,
        "zip": "98029"
      }
    },
    {
      "item": {
        "state": "CO",
        "city": "Sheridan",
        "theatre_code": "1943",
        "path_name": "regal-river-point-1943",
        "name": "Regal River Point",
        "address": "3565 South Platte River Drive",
        "latitude": 39.6529,
        "longitude": -105.0084,
        "zip": "80110"
      }
    },
    {
      "item": {
        "state": "NY",
        "city": "Watertown",
        "theatre_code": "1946",
        "path_name": "regal-salmon-run-1946",
        "name": "Regal Salmon Run",
        "address": "21182 Salmon Run Mall Loop W",
        "latitude": 43.9756,
        "longitude": -75.9005,
        "zip": "13601"
      }
    },
    {
      "item": {
        "state": "HI",
        "city": "Kapolei",
        "theatre_code": "1951",
        "path_name": "regal-kapolei-commons-1951",
        "name": "Regal Kapolei Commons",
        "address": "4450 Kapolei Parkway Suite 500",
        "latitude": 21.3305,
        "longitude": -158.09419,
        "zip": "96707"
      }
    },
    {
      "item": {
        "state": "WA",
        "city": "Mountlake Terrace",
        "theatre_code": "1958",
        "path_name": "regal-cinebarre-mountlake-1958",
        "name": "Regal Cinebarre Mountlake",
        "address": "24240 Van Ry Blvd",
        "latitude": 47.77909,
        "longitude": -122.31466,
        "zip": "98043"
      }
    },
    {
      "item": {
        "state": "VA",
        "city": "Charlottesville",
        "theatre_code": "1969",
        "path_name": "regal-stonefield-1969",
        "name": "Regal Stonefield",
        "address": "1954 Swanson Drive",
        "latitude": 38.0656,
        "longitude": -78.4932,
        "zip": "22901"
      }
    },
    {
      "item": {
        "state": "NM",
        "city": "Albuquerque",
        "theatre_code": "1992",
        "path_name": "regal-winrock-1992",
        "name": "Regal Winrock",
        "address": "2100 Louisina Blvd NE, Bld 400",
        "latitude": 35.0977,
        "longitude": -106.5665,
        "zip": "87110"
      }
    },
    {
      "item": {
        "state": "AK",
        "city": "Anchorage",
        "theatre_code": "1994",
        "path_name": "regal-tikahtnu-1994",
        "name": "Regal Tikahtnu",
        "address": "1102 North Muldoon Rd Suite B",
        "latitude": 61.2045,
        "longitude": -149.7485,
        "zip": "99504"
      }
    },
    {
      "item": {
        "state": "VA",
        "city": "Lynchburg",
        "theatre_code": "1995",
        "path_name": "regal-river-ridge-1995",
        "name": "Regal River Ridge",
        "address": "3411 Candlers Mountain Road",
        "latitude": 37.3674,
        "longitude": -79.1747,
        "zip": "24502"
      }
    }
  ]
}